countryName,alpha3,continent,region,longitude,latitude,year,happiness,gdpPerCapita,socialSupport,lifeExpectancy,lifeChoices,generosity,corruption,yearAsDate
Finland,FIN,Europe,Europe & Central Asia,25.748,61.924,2024,7.736,1.749,1.783,0.824,0.986,0.11,0.502,1/1/24
Denmark,DNK,Europe,Europe & Central Asia,9.502,56.264,2024,7.521,1.825,1.748,0.82,0.955,0.15,0.488,1/1/24
Iceland,ISL,Europe,Europe & Central Asia,-19.021,64.963,2024,7.515,1.799,1.84,0.873,0.971,0.201,0.173,1/1/24
Sweden,SWE,Europe,Europe & Central Asia,18.644,60.128,2024,7.345,1.783,1.698,0.889,0.952,0.17,0.467,1/1/24
Netherlands,NLD,Europe,Europe & Central Asia,5.291,52.133,2024,7.306,1.822,1.667,0.844,0.86,0.186,0.344,1/1/24
Costa Rica,CRI,North America,America,-83.753,9.749,2024,7.274,1.492,1.6,0.68,0.948,0.067,0.118,1/1/24
Norway,NOR,Europe,Europe & Central Asia,8.469,60.472,2024,7.262,1.902,1.711,0.863,0.962,0.168,0.425,1/1/24
Israel,ISR,Asia,Middle East & North Africa,34.852,31.046,2024,7.234,1.695,1.743,0.824,0.74,0.144,0.193,1/1/24
Luxembourg,LUX,Europe,Europe & Central Asia,6.13,49.815,2024,7.122,2.028,1.558,0.864,0.931,0.117,0.397,1/1/24
Mexico,MEX,North America,America,-102.553,23.635,2024,6.979,1.435,1.504,0.55,0.879,0.057,0.118,1/1/24
Australia,AUS,Oceania,East Asia & Pacific,133.775,-25.274,2024,6.974,1.767,1.647,0.841,0.857,0.164,0.285,1/1/24
New Zealand,NZL,Oceania,East Asia & Pacific,174.886,-40.901,2024,6.952,1.698,1.712,0.815,0.861,0.167,0.429,1/1/24
Switzerland,CHE,Europe,Europe & Central Asia,8.228,46.818,2024,6.935,1.87,1.622,0.883,0.889,0.156,0.468,1/1/24
Belgium,BEL,Europe,Europe & Central Asia,4.47,50.504,2024,6.91,1.783,1.646,0.852,0.895,0.119,0.306,1/1/24
Ireland,IRL,Europe,Europe & Central Asia,-8.244,53.413,2024,6.889,1.988,1.659,0.823,0.906,0.179,0.382,1/1/24
Lithuania,LTU,Europe,Europe & Central Asia,23.881,55.169,2024,6.829,1.684,1.699,0.592,0.702,0.031,0.123,1/1/24
Austria,AUT,Europe,Europe & Central Asia,14.55,47.516,2024,6.81,1.791,1.592,0.814,0.856,0.179,0.28,1/1/24
Canada,CAN,North America,America,-106.347,56.13,2024,6.803,1.749,1.647,0.832,0.813,0.168,0.323,1/1/24
Slovenia,SVN,Europe,Europe & Central Asia,14.995,46.151,2024,6.792,1.692,1.718,0.802,0.961,0.121,0.113,1/1/24
Czechia,CZE,Europe,Europe & Central Asia,15.473,49.817,2024,6.775,1.692,1.716,0.658,0.916,0.118,0.084,1/1/24
United Arab Emirates,ARE,Asia,Middle East & North Africa,53.848,23.424,2024,6.759,1.812,1.294,0.659,0.934,0.165,0.235,1/1/24
Germany,DEU,Europe,Europe & Central Asia,10.452,51.166,2024,6.753,1.785,1.625,0.776,0.858,0.148,0.351,1/1/24
United Kingdom,GBR,Europe,Europe & Central Asia,-1.436,52.378,2024,6.728,1.725,1.562,0.779,0.872,0.211,0.318,1/1/24
United States,USA,North America,America,-95.713,37.09,2024,6.724,1.839,1.614,0.604,0.644,0.171,0.161,1/1/24
Belize,BLZ,North America,America,-88.498,17.19,2024,6.711,1.256,1.54,0.525,1.018,0.072,0.082,1/1/24
Poland,POL,Europe,Europe & Central Asia,19.145,51.919,2024,6.673,1.666,1.595,0.63,0.79,0.021,0.169,1/1/24
Taiwan Province of China,TWN,Asia,East Asia & Pacific,120.961,23.698,2024,6.669,1.73,1.583,0.817,0.76,0.057,0.187,1/1/24
Uruguay,URY,South America,America,-55.766,-32.523,2024,6.661,1.554,1.654,0.523,0.913,0.078,0.197,1/1/24
Kosovo,XKK,Europe,Europe & Central Asia,21.167,42.24,2024,6.659,1.281,1.454,0.896,0.893,0.201,0.087,1/1/24
Kuwait,KWT,Asia,Middle East & North Africa,47.482,29.312,2024,6.629,1.691,1.481,0.766,0.934,0.143,0.167,1/1/24
Serbia,SRB,Europe,Europe & Central Asia,21.006,44.017,2024,6.606,1.489,1.62,0.545,0.767,0.131,0.107,1/1/24
Saudi Arabia,SAU,Asia,Middle East & North Africa,45.079,23.886,2024,6.6,1.743,1.566,0.714,0.915,0.105,0.187,1/1/24
France,FRA,Europe,Europe & Central Asia,2.214,46.228,2024,6.593,1.733,1.535,0.832,0.743,0.099,0.264,1/1/24
Singapore,SGP,Asia,East Asia & Pacific,103.82,1.352,2024,6.565,2.022,1.565,0.935,0.856,0.164,0.522,1/1/24
Romania,ROU,Europe,Europe & Central Asia,24.967,45.943,2024,6.563,1.636,1.401,0.561,0.847,0.028,0.015,1/1/24
Brazil,BRA,South America,America,-51.925,-14.235,2024,6.494,1.391,1.519,0.48,0.83,0.089,0.127,1/1/24
El Salvador,SLV,North America,America,-88.897,13.794,2024,6.492,1.222,1.228,0.559,0.955,0.054,0.264,1/1/24
Spain,ESP,Europe,Europe & Central Asia,-3.749,40.464,2024,6.466,1.69,1.685,0.894,0.734,0.112,0.18,1/1/24
Estonia,EST,Europe,Europe & Central Asia,25.014,58.595,2024,6.417,1.65,1.716,0.642,0.902,0.128,0.378,1/1/24
Italy,ITA,Europe,Europe & Central Asia,12.567,41.872,2024,6.415,1.724,1.526,0.852,0.641,0.082,0.071,1/1/24
Panama,PAN,North America,America,-80.782,8.538,2024,6.407,1.594,1.6,0.717,0.876,0.041,0.042,1/1/24
Argentina,ARG,South America,America,-63.617,-38.416,2024,6.397,1.504,1.622,0.579,0.824,0.048,0.083,1/1/24
Kazakhstan,KAZ,Asia,Europe & Central Asia,66.924,48.02,2024,6.378,1.586,1.688,0.504,0.878,0.111,0.118,1/1/24
Guatemala,GTM,North America,America,-90.231,15.783,2024,6.362,1.249,1.33,0.376,0.882,0.075,0.085,1/1/24
Chile,CHL,South America,America,-71.543,-35.675,2024,6.361,1.537,1.577,0.711,0.779,0.093,0.085,1/1/24
Vietnam,VNM,Asia,East Asia & Pacific,108.277,14.058,2024,6.352,1.278,1.533,0.631,1.012,0.039,0.174,1/1/24
Nicaragua,NIC,North America,America,-85.207,12.865,2024,6.33,1.084,1.47,0.646,0.912,0.103,0.271,1/1/24
Malta,MLT,Europe,Europe & Central Asia,14.375,35.937,2024,6.316,1.76,1.671,0.837,0.837,0.217,0.115,1/1/24
Thailand,THA,Asia,East Asia & Pacific,100.993,15.87,2024,6.222,1.426,1.551,0.633,0.927,0.223,0.039,1/1/24
Slovakia,SVK,Europe,Europe & Central Asia,19.699,48.669,2024,6.221,1.629,1.762,0.547,0.704,0.058,0.07,1/1/24
Latvia,LVA,Europe,Europe & Central Asia,24.603,56.88,2024,6.207,1.619,1.711,0.503,0.789,0.108,0.082,1/1/24
Oman,OMN,Asia,Middle East & North Africa,58.408,23.589,2024,6.197,1.603,1.411,0.5,0.93,0.142,,1/1/24
Uzbekistan,UZB,Asia,Europe & Central Asia,64.585,41.377,2024,6.193,1.179,1.615,0.654,0.977,0.195,0.208,1/1/24
Paraguay,PRY,South America,America,-58.444,-23.443,2024,6.172,1.329,1.615,0.291,0.921,0.097,0.063,1/1/24
Japan,JPN,Asia,East Asia & Pacific,138.253,36.205,2024,6.147,1.678,1.55,0.921,0.746,0.014,0.2,1/1/24
Bosnia and Herzegovina,BIH,Europe,Europe & Central Asia,17.679,43.916,2024,6.136,1.405,1.545,0.616,0.749,0.178,0.009,1/1/24
Philippines,PHL,Asia,East Asia & Pacific,121.774,12.88,2024,6.107,1.177,1.385,0.315,0.966,0.075,0.11,1/1/24
South Korea,KOR,Asia,East Asia & Pacific,126.967,37.55,2024,6.038,1.709,1.357,0.903,0.678,0.1,0.139,1/1/24
Bahrain,BHR,Asia,Middle East & North Africa,50.638,25.93,2024,6.03,1.752,1.391,0.609,0.907,0.148,0.167,1/1/24
Portugal,PRT,Europe,Europe & Central Asia,-8.224,39.4,2024,6.013,1.646,1.56,0.822,0.879,0.04,0.034,1/1/24
Colombia,COL,South America,America,-74.297,4.571,2024,6.004,1.38,1.513,0.587,0.777,0.039,0.051,1/1/24
Ecuador,ECU,South America,America,-78.183,-1.831,2024,5.965,1.299,1.32,0.702,0.712,0.058,0.066,1/1/24
Honduras,HND,North America,America,-86.242,15.2,2024,5.964,1.036,1.187,0.436,0.862,0.134,0.079,1/1/24
Malaysia,MYS,Asia,East Asia & Pacific,101.976,4.21,2024,5.955,1.571,1.315,0.446,0.991,0.181,0.11,1/1/24
Peru,PER,South America,America,-75.015,-9.19,2024,5.947,1.323,1.364,0.551,0.71,0.05,0.021,1/1/24
Russia,RUS,Asia,Europe & Central Asia,105.319,61.524,2024,5.945,1.63,1.549,0.47,0.702,0.095,0.125,1/1/24
Cyprus,CYP,Europe,Europe & Central Asia,33.43,35.126,2024,5.942,1.72,1.348,0.84,0.612,0.108,0.041,1/1/24
China,CHN,Asia,East Asia & Pacific,104.195,35.862,2024,5.921,1.445,1.307,0.789,0.764,0.079,0.154,1/1/24
Hungary,HUN,Europe,Europe & Central Asia,19.503,47.162,2024,5.915,1.638,1.742,0.587,0.681,0.099,0.057,1/1/24
Trinidad and Tobago,TTO,North America,America,-61.223,10.692,2024,5.905,1.549,1.532,0.419,0.76,0.111,0.001,1/1/24
Montenegro,MNE,Europe,Europe & Central Asia,19.374,42.709,2024,5.877,1.507,1.551,0.618,0.768,0.075,0.138,1/1/24
Croatia,HRV,Europe,Europe & Central Asia,15.2,45.1,2024,5.87,1.644,1.673,0.669,0.478,0.022,0.065,1/1/24
Jamaica,JAM,North America,America,-77.298,18.11,2024,5.87,1.182,1.545,0.504,0.869,0.075,0.019,1/1/24
Bolivia,BOL,South America,America,-63.589,-16.29,2024,5.868,1.173,1.356,0.346,0.817,0.067,0.052,1/1/24
Kyrgyzstan,KGZ,Asia,Europe & Central Asia,74.766,41.204,2024,5.858,1.032,1.715,0.647,0.981,0.169,0.053,1/1/24
Dominican Republic,DOM,North America,America,-70.163,18.736,2024,5.846,1.457,1.5,0.615,0.866,0.063,0.186,1/1/24
Mongolia,MNG,Asia,East Asia & Pacific,103.847,46.862,2024,5.833,1.336,1.731,0.423,0.629,0.18,0.053,1/1/24
Mauritius,MUS,Africa,Sub-Saharan Africa,57.552,-20.348,2024,5.832,1.499,1.521,0.617,0.761,0.095,0.13,1/1/24
Libya,LBY,Africa,Middle East & North Africa,17,25,2024,5.82,1.247,1.309,0.549,0.724,0.111,0.214,1/1/24
Moldova,MDA,Europe,Europe & Central Asia,28.37,47.412,2024,5.819,1.332,1.43,0.414,0.83,0.054,0.037,1/1/24
Greece,GRC,Europe,Europe & Central Asia,21.824,39.074,2024,5.776,1.608,1.438,0.725,0.396,0.003,0.063,1/1/24
Venezuela,VEN,South America,America,-66.59,6.424,2024,5.683,0,1.493,0.515,0.702,0.154,0.117,1/1/24
Indonesia,IDN,Asia,East Asia & Pacific,113.921,-0.789,2024,5.617,1.288,1.372,0.454,0.918,0.323,0.044,1/1/24
Algeria,DZA,Africa,Middle East & North Africa,1.66,28.034,2024,5.571,1.315,1.363,0.782,0.522,0.057,0.219,1/1/24
Bulgaria,BGR,Europe,Europe & Central Asia,25.486,42.734,2024,5.554,1.573,1.725,0.463,0.708,0.055,0,1/1/24
North Macedonia,MKD,Europe,Europe & Central Asia,21.745,41.609,2024,5.503,1.458,1.537,0.544,0.637,0.13,0.007,1/1/24
Armenia,ARM,Asia,Europe & Central Asia,45.038,40.069,2024,5.494,1.391,1.349,0.828,0.786,0.032,0.158,1/1/24
Hong Kong S.A.R. of China,HKG,Asia,East Asia & Pacific,114.109,22.396,2024,5.491,1.79,1.41,0.948,0.674,0.116,0.386,1/1/24
Albania,ALB,Europe,Europe & Central Asia,20.168,41.153,2024,5.411,1.371,1.122,0.696,0.841,0.103,0.057,1/1/24
Tajikistan,TJK,Asia,Europe & Central Asia,71.276,38.861,2024,5.411,0.914,1.555,0.658,,0.085,0.342,1/1/24
Georgia,GEO,Asia,Europe & Central Asia,83.113,32.961,2024,5.4,1.444,1.275,0.482,0.844,0,0.172,1/1/24
Nepal,NPL,Asia,South Asia,84.124,28.395,2024,5.311,0.944,1.21,0.463,0.764,0.155,0.099,1/1/24
Laos,LAO,Asia,East Asia & Pacific,102.495,19.856,2024,5.301,1.122,1.01,0.493,0.916,0.145,0.164,1/1/24
Turkey,TUR,Asia,Europe & Central Asia,35.243,38.964,2024,5.262,1.582,1.444,0.626,0.244,0.04,0.104,1/1/24
South Africa,ZAF,Africa,Sub-Saharan Africa,22.938,-30.559,2024,5.213,1.283,1.465,0.142,0.676,0.064,0.043,1/1/24
Mozambique,MOZ,Africa,Sub-Saharan Africa,35.53,-18.666,2024,5.19,0.559,1.131,0.124,0.813,0.127,0.173,1/1/24
Gabon,GAB,Africa,Sub-Saharan Africa,11.609,-0.804,2024,5.12,1.386,1.224,0.387,0.651,0.042,0.086,1/1/24
Ivory Coast,CIV,Africa,Sub-Saharan Africa,-5.547,7.54,2024,5.102,1.038,0.76,0.206,0.661,0.1,0.162,1/1/24
Iran,IRN,Asia,Middle East & North Africa,53.688,32.428,2024,5.093,1.33,1.367,0.609,0.456,0.202,0.122,1/1/24
Congo (Brazzaville),COG,Africa,Sub-Saharan Africa,15.828,-0.228,2024,5.03,1.023,0.796,0.336,0.626,0.082,0.126,1/1/24
Iraq,IRQ,Asia,Middle East & North Africa,43.679,33.223,2024,4.976,1.261,1.275,0.589,0.503,0.1,0.069,1/1/24
Guinea,GIN,Africa,Sub-Saharan Africa,-9.697,9.946,2024,4.929,0.873,0.791,0.306,0.676,0.157,0.098,1/1/24
Namibia,NAM,Africa,Sub-Saharan Africa,18.49,-22.958,2024,4.911,1.182,1.482,0.104,0.564,0.052,0.056,1/1/24
Cameroon,CMR,Africa,Sub-Saharan Africa,12.355,7.37,2024,4.887,0.944,0.986,0.302,0.662,0.099,0.06,1/1/24
Nigeria,NGA,Africa,Sub-Saharan Africa,8.675,9.082,2024,4.885,0.989,1.245,0.38,0.639,0.17,0.028,1/1/24
Azerbaijan,AZE,Asia,Europe & Central Asia,47.577,40.143,2024,4.875,1.428,1.03,0.707,0.785,0.076,0.179,1/1/24
Senegal,SEN,Africa,Sub-Saharan Africa,-14.452,14.497,2024,4.856,0.907,0.977,0.433,0.767,0.129,0.09,1/1/24
State of Palestine,PSE,Asia,Middle East & North Africa,17.267,42.094,2024,4.78,1.047,1.456,,0.618,0.055,0.081,1/1/24
Pakistan,PAK,Asia,South Asia,69.345,30.375,2024,4.768,0.982,0.759,0.417,0.529,0.136,0.046,1/1/24
Niger,NER,Africa,Sub-Saharan Africa,8.082,17.608,2024,4.725,0.606,0.796,0.258,0.759,0.122,0.137,1/1/24
Ukraine,UKR,Europe,Europe & Central Asia,31.166,48.379,2024,4.68,1.328,1.472,0.472,0.689,0.245,0.023,1/1/24
Morocco,MAR,Africa,Middle East & North Africa,-7.093,31.792,2024,4.622,1.139,0.635,0.585,0.748,0.031,0.095,1/1/24
Tunisia,TUN,Africa,Middle East & North Africa,9.537,33.887,2024,4.552,1.257,1.224,0.459,0.382,0.032,0.05,1/1/24
Mauritania,MRT,Africa,Sub-Saharan Africa,-10.941,21.008,2024,4.542,1.023,0.919,0.516,0.454,0.113,0.195,1/1/24
Kenya,KEN,Africa,Sub-Saharan Africa,37.906,-0.024,2024,4.51,0.994,1.047,0.448,0.649,0.22,0.073,1/1/24
Uganda,UGA,Africa,Sub-Saharan Africa,32.29,1.373,2024,4.461,0.762,1.342,0.396,0.751,0.148,0.05,1/1/24
Gambia,GMB,Africa,Sub-Saharan Africa,-15.31,13.443,2024,4.423,0.778,0.958,0.348,0.611,0.255,0.045,1/1/24
India,IND,Asia,South Asia,78.963,20.594,2024,4.389,1.149,0.86,0.316,0.914,0.141,0.12,1/1/24
Chad,TCD,Africa,Sub-Saharan Africa,18.732,15.454,2024,4.384,0.592,0.902,0.242,0.477,0.175,0.111,1/1/24
Burkina Faso,BFA,Africa,Sub-Saharan Africa,-1.562,12.238,2024,4.383,0.724,0.828,0.296,0.671,0.142,0.218,1/1/24
Benin,BEN,Africa,Sub-Saharan Africa,2.316,9.308,2024,4.357,0.855,0.228,0.357,0.679,0.092,0.238,1/1/24
Somalia,SOM,Africa,Sub-Saharan Africa,46.2,5.152,2024,4.347,0.535,0.877,0.046,0.916,0.206,0.192,1/1/24
Mali,MLI,Africa,Sub-Saharan Africa,-3.996,17.571,2024,4.345,0.709,0.908,0.318,0.767,0.093,0.114,1/1/24
Cambodia,KHM,Asia,East Asia & Pacific,104.991,12.566,2024,4.341,1.049,1.215,0.481,0.988,0.138,0.078,1/1/24
Ghana,GHA,Africa,Sub-Saharan Africa,-1.023,7.947,2024,4.34,1.053,1.01,0.438,0.771,0.139,0.025,1/1/24
Myanmar,MMR,Asia,East Asia & Pacific,95.956,21.914,2024,4.321,0.975,1.144,0.446,0.569,0.322,0.163,1/1/24
Togo,TGO,Africa,Sub-Saharan Africa,0.825,8.62,2024,4.315,0.757,0.736,0.378,0.576,0.097,0.153,1/1/24
Jordan,JOR,Asia,Middle East & North Africa,36.238,30.585,2024,4.31,1.158,1.202,0.573,0.7,0.051,0.164,1/1/24
Liberia,LBR,Africa,Sub-Saharan Africa,-9.429,6.428,2024,4.277,0.582,0.888,0.324,0.653,0.143,0.068,1/1/24
Madagascar,MDG,Africa,Sub-Saharan Africa,46.869,-18.767,2024,4.157,0.588,0.938,0.341,0.292,0.131,0.118,1/1/24
Zambia,ZMB,Africa,Sub-Saharan Africa,27.849,-13.134,2024,3.912,0.848,1.013,0.233,0.872,0.131,0.107,1/1/24
Ethiopia,ETH,Africa,Sub-Saharan Africa,40.49,9.145,2024,3.898,0.757,1.051,0.416,0.54,0.182,0.1,1/1/24
Sri Lanka,LKA,Asia,South Asia,80.772,7.873,2024,3.891,1.271,1.308,0.567,0.696,0.121,0.025,1/1/24
Bangladesh,BGD,Asia,South Asia,90.356,23.685,2024,3.851,1.116,0.286,0.592,0.92,0.11,0.132,1/1/24
Egypt,EGY,Africa,Middle East & North Africa,30.802,26.821,2024,3.817,1.347,1.075,0.473,0.593,0.018,0.103,1/1/24
Tanzania,TZA,Africa,Sub-Saharan Africa,34.889,-6.369,2024,3.8,0.847,0.908,0.411,0.858,0.153,0.243,1/1/24
Eswatini,SWZ,Africa,Sub-Saharan Africa,31.466,-26.523,2024,3.774,1.183,1.152,0.038,0.428,0.054,0.13,1/1/24
Lesotho,LSO,Africa,Sub-Saharan Africa,28.234,-29.61,2024,3.757,0.737,1.131,0,0.606,0.065,0.072,1/1/24
Comoros,COM,Africa,Sub-Saharan Africa,43.872,-11.875,2024,3.754,0.835,0.501,0.428,0.26,0.117,0.164,1/1/24
Yemen,YEM,Asia,Middle East & North Africa,48.516,15.553,2024,3.561,0.631,1.482,0.375,0.447,0.066,0.106,1/1/24
Congo (Kinshasa),COD,Africa,Sub-Saharan Africa,15.828,-0.228,2024,3.469,0.544,0.929,0.278,0.6,0.151,0.061,1/1/24
Botswana,BWA,Africa,Sub-Saharan Africa,24.685,-22.328,2024,3.438,1.388,1.146,0.094,0.697,0.018,0.083,1/1/24
Zimbabwe,ZWE,Africa,Sub-Saharan Africa,29.155,-19.015,2024,3.396,0.827,0.961,0.178,0.598,0.065,0.131,1/1/24
Malawi,MWI,Africa,Sub-Saharan Africa,34.302,-13.254,2024,3.26,0.588,0.489,0.28,0.677,0.115,0.136,1/1/24
Lebanon,LBN,Asia,Middle East & North Africa,35.862,33.855,2024,3.188,1.223,0.984,0.44,0.279,0.071,0.041,1/1/24
Sierra Leone,SLE,Africa,Sub-Saharan Africa,-11.78,8.461,2024,2.998,0.786,0.692,0.327,0.613,0.138,0.052,1/1/24
Afghanistan,AFG,Asia,South Asia,67.71,33.939,2024,1.364,0.649,0,0.155,0,0.075,0.135,1/1/24
Finland,FIN,Europe,Europe & Central Asia,25.748,61.924,2023,7.741,1.844,1.572,0.695,0.859,0.142,0.546,1/1/23
Denmark,DNK,Europe,Europe & Central Asia,9.502,56.264,2023,7.583,1.908,1.52,0.699,0.823,0.204,0.548,1/1/23
Iceland,ISL,Europe,Europe & Central Asia,-19.021,64.963,2023,7.525,1.881,1.617,0.718,0.819,0.258,0.182,1/1/23
Sweden,SWE,Europe,Europe & Central Asia,18.644,60.128,2023,7.344,1.878,1.501,0.724,0.838,0.221,0.524,1/1/23
Israel,ISR,Asia,Middle East & North Africa,34.852,31.046,2023,7.341,1.803,1.513,0.74,0.641,0.153,0.193,1/1/23
Netherlands,NLD,Europe,Europe & Central Asia,5.291,52.133,2023,7.319,1.901,1.462,0.706,0.725,0.247,0.372,1/1/23
Norway,NOR,Europe,Europe & Central Asia,8.469,60.472,2023,7.302,1.952,1.517,0.704,0.835,0.224,0.484,1/1/23
Luxembourg,LUX,Europe,Europe & Central Asia,6.13,49.815,2023,7.122,2.141,1.355,0.708,0.801,0.146,0.432,1/1/23
Switzerland,CHE,Europe,Europe & Central Asia,8.228,46.818,2023,7.06,1.97,1.425,0.747,0.759,0.173,0.498,1/1/23
Australia,AUS,Oceania,East Asia & Pacific,133.775,-25.274,2023,7.057,1.854,1.461,0.692,0.756,0.225,0.323,1/1/23
New Zealand,NZL,Oceania,East Asia & Pacific,174.886,-40.901,2023,7.029,1.81,1.527,0.673,0.746,0.226,0.48,1/1/23
Costa Rica,CRI,North America,America,-83.753,9.749,2023,6.955,1.561,1.373,0.661,0.797,0.109,0.123,1/1/23
Kuwait,KWT,Asia,Middle East & North Africa,47.482,29.312,2023,6.951,1.845,1.364,0.661,0.827,0.2,0.172,1/1/23
Austria,AUT,Europe,Europe & Central Asia,14.55,47.516,2023,6.905,1.885,1.336,0.696,0.703,0.214,0.305,1/1/23
Canada,CAN,North America,America,-106.347,56.13,2023,6.9,1.84,1.459,0.701,0.73,0.23,0.368,1/1/23
Belgium,BEL,Europe,Europe & Central Asia,4.47,50.504,2023,6.894,1.868,1.44,0.69,0.729,0.17,0.311,1/1/23
Ireland,IRL,Europe,Europe & Central Asia,-8.244,53.413,2023,6.838,2.129,1.39,0.7,0.758,0.205,0.418,1/1/23
Czechia,CZE,Europe,Europe & Central Asia,15.473,49.817,2023,6.822,1.783,1.511,0.638,0.787,0.177,0.068,1/1/23
Lithuania,LTU,Europe,Europe & Central Asia,23.881,55.169,2023,6.818,1.766,1.454,0.598,0.533,0.044,0.116,1/1/23
United Kingdom,GBR,Europe,Europe & Central Asia,-1.436,52.378,2023,6.749,1.822,1.326,0.672,0.713,0.267,0.351,1/1/23
Slovenia,SVN,Europe,Europe & Central Asia,14.995,46.151,2023,6.743,1.786,1.502,0.695,0.789,0.157,0.131,1/1/23
United Arab Emirates,ARE,Asia,Middle East & North Africa,53.848,23.424,2023,6.733,1.983,1.164,0.563,0.815,0.209,0.258,1/1/23
United States,USA,North America,America,-95.713,37.09,2023,6.725,1.939,1.392,0.542,0.586,0.223,0.169,1/1/23
Germany,DEU,Europe,Europe & Central Asia,10.452,51.166,2023,6.719,1.871,1.39,0.702,0.7,0.174,0.368,1/1/23
Mexico,MEX,North America,America,-102.553,23.635,2023,6.678,1.521,1.241,0.544,0.722,0.086,0.127,1/1/23
Uruguay,URY,South America,America,-55.766,-32.523,2023,6.611,1.596,1.431,0.592,0.775,0.106,0.22,1/1/23
France,FRA,Europe,Europe & Central Asia,2.214,46.228,2023,6.609,1.818,1.348,0.727,0.65,0.112,0.281,1/1/23
Saudi Arabia,SAU,Asia,Middle East & North Africa,45.079,23.886,2023,6.594,1.842,1.361,0.511,0.787,0.114,0.188,1/1/23
Kosovo,XKK,Europe,Europe & Central Asia,21.167,42.24,2023,6.561,1.364,1.277,0.599,0.739,0.254,0.073,1/1/23
Singapore,SGP,Asia,East Asia & Pacific,103.82,1.352,2023,6.523,2.118,1.361,0.769,0.743,0.168,0.575,1/1/23
Taiwan Province of China,TWN,Asia,East Asia & Pacific,120.961,23.698,2023,6.503,1.842,1.346,0.65,0.649,0.068,0.202,1/1/23
Romania,ROU,Europe,Europe & Central Asia,24.967,45.943,2023,6.491,1.699,1.236,0.583,0.717,0.041,0.006,1/1/23
El Salvador,SLV,North America,America,-88.897,13.794,2023,6.469,1.265,1.08,0.549,0.816,0.083,0.253,1/1/23
Estonia,EST,Europe,Europe & Central Asia,25.014,58.595,2023,6.448,1.752,1.527,0.657,0.805,0.166,0.401,1/1/23
Poland,POL,Europe,Europe & Central Asia,19.145,51.919,2023,6.442,1.738,1.417,0.639,0.6,0.081,0.175,1/1/23
Spain,ESP,Europe,Europe & Central Asia,-3.749,40.464,2023,6.421,1.766,1.471,0.729,0.619,0.119,0.177,1/1/23
Serbia,SRB,Europe,Europe & Central Asia,21.006,44.017,2023,6.411,1.538,1.391,0.585,0.663,0.2,0.101,1/1/23
Chile,CHL,South America,America,-71.543,-35.675,2023,6.36,1.616,1.369,0.673,0.651,0.117,0.075,1/1/23
Panama,PAN,North America,America,-80.782,8.538,2023,6.358,1.702,1.392,0.633,0.72,0.063,0.043,1/1/23
Malta,MLT,Europe,Europe & Central Asia,14.375,35.937,2023,6.346,1.827,1.444,0.707,0.727,0.25,0.125,1/1/23
Italy,ITA,Europe,Europe & Central Asia,12.567,41.872,2023,6.324,1.8,1.328,0.72,0.513,0.112,0.074,1/1/23
Guatemala,GTM,North America,America,-90.231,15.783,2023,6.287,1.26,1.169,0.467,0.735,0.105,0.078,1/1/23
Nicaragua,NIC,North America,America,-85.207,12.865,2023,6.284,1.097,1.263,0.542,0.793,0.133,0.251,1/1/23
Brazil,BRA,South America,America,-51.925,-14.235,2023,6.272,1.43,1.269,0.548,0.685,0.13,0.142,1/1/23
Slovakia,SVK,Europe,Europe & Central Asia,19.699,48.669,2023,6.257,1.706,1.54,0.638,0.566,0.096,0.058,1/1/23
Latvia,LVA,Europe,Europe & Central Asia,24.603,56.88,2023,6.234,1.7,1.508,0.564,0.666,0.127,0.078,1/1/23
Uzbekistan,UZB,Asia,Europe & Central Asia,64.585,41.377,2023,6.195,1.212,1.394,0.539,0.835,0.251,0.215,1/1/23
Argentina,ARG,South America,America,-63.617,-38.416,2023,6.188,1.562,1.381,0.585,0.681,0.087,0.08,1/1/23
Kazakhstan,KAZ,Asia,Europe & Central Asia,66.924,48.02,2023,6.188,1.622,1.457,0.556,0.733,0.149,0.12,1/1/23
Cyprus,CYP,Europe,Europe & Central Asia,33.43,35.126,2023,6.068,1.794,1.217,0.744,0.529,0.124,0.049,1/1/23
Japan,JPN,Asia,East Asia & Pacific,138.253,36.205,2023,6.06,1.786,1.354,0.785,0.632,0.023,0.219,1/1/23
South Korea,KOR,Asia,East Asia & Pacific,126.967,37.55,2023,6.058,1.815,1.178,0.77,0.555,0.126,0.158,1/1/23
Philippines,PHL,Asia,East Asia & Pacific,121.774,12.88,2023,6.048,1.232,1.146,0.441,0.826,0.099,0.136,1/1/23
Vietnam,VNM,Asia,East Asia & Pacific,108.277,14.058,2023,6.043,1.331,1.267,0.539,0.843,0.094,0.16,1/1/23
Portugal,PRT,Europe,Europe & Central Asia,-8.224,39.4,2023,6.03,1.728,1.368,0.699,0.757,0.047,0.035,1/1/23
Hungary,HUN,Europe,Europe & Central Asia,19.503,47.162,2023,6.017,1.722,1.528,0.596,0.581,0.123,0.067,1/1/23
Paraguay,PRY,South America,America,-58.444,-23.443,2023,5.977,1.398,1.408,0.549,0.788,0.131,0.065,1/1/23
Thailand,THA,Asia,East Asia & Pacific,100.993,15.87,2023,5.976,1.484,1.347,0.62,0.756,0.283,0.024,1/1/23
Malaysia,MYS,Asia,East Asia & Pacific,101.976,4.21,2023,5.975,1.646,1.143,0.54,0.829,0.226,0.119,1/1/23
China,CHN,Asia,East Asia & Pacific,104.195,35.862,2023,5.973,1.497,1.239,0.629,0.704,0.132,0.164,1/1/23
Honduras,HND,North America,America,-86.242,15.2,2023,5.968,1.091,1.035,0.502,0.72,0.175,0.081,1/1/23
Bahrain,BHR,Asia,Middle East & North Africa,50.638,25.93,2023,5.959,,,,,,,1/1/23
Croatia,HRV,Europe,Europe & Central Asia,15.2,45.1,2023,5.942,1.71,1.445,0.637,0.469,0.064,0.043,1/1/23
Greece,GRC,Europe,Europe & Central Asia,21.824,39.074,2023,5.934,1.684,1.276,0.696,0.337,0.018,0.093,1/1/23
Bosnia and Herzegovina,BIH,Europe,Europe & Central Asia,17.679,43.916,2023,5.877,1.465,1.318,0.587,0.621,0.246,,1/1/23
Libya,LBY,Africa,Middle East & North Africa,17,25,2023,5.866,1.526,1.1,0.55,0.592,0.111,0.204,1/1/23
Jamaica,JAM,North America,America,-77.298,18.11,2023,5.842,1.28,1.324,0.567,0.647,0.089,0.028,1/1/23
Peru,PER,South America,America,-75.015,-9.19,2023,5.841,1.371,1.18,0.662,0.615,0.078,0.029,1/1/23
Dominican Republic,DOM,North America,America,-70.163,18.736,2023,5.823,1.517,1.272,0.511,0.73,0.086,0.196,1/1/23
Mauritius,MUS,Africa,Sub-Saharan Africa,57.552,-20.348,2023,5.816,1.57,1.358,0.49,0.641,0.123,0.118,1/1/23
Moldova,MDA,Europe,Europe & Central Asia,28.37,47.412,2023,5.816,1.385,1.277,0.542,0.695,0.077,0.044,1/1/23
Russia,RUS,Asia,Europe & Central Asia,105.319,61.524,2023,5.785,1.642,1.351,0.531,0.551,0.138,0.121,1/1/23
Bolivia,BOL,South America,America,-63.589,-16.29,2023,5.784,1.217,1.179,0.488,0.719,0.1,0.061,1/1/23
Ecuador,ECU,South America,America,-78.183,-1.831,2023,5.725,1.315,1.151,0.64,0.606,0.087,0.078,1/1/23
Kyrgyzstan,KGZ,Asia,Europe & Central Asia,74.766,41.204,2023,5.714,1.054,1.477,0.588,0.834,0.225,0.03,1/1/23
Montenegro,MNE,Europe,Europe & Central Asia,19.374,42.709,2023,5.707,1.571,1.318,0.587,0.632,0.11,0.132,1/1/23
Mongolia,MNG,Asia,East Asia & Pacific,103.847,46.862,2023,5.696,1.353,1.511,0.4,0.501,0.237,0.055,1/1/23
Colombia,COL,South America,America,-74.297,4.571,2023,5.695,1.437,1.241,0.648,0.644,0.072,0.059,1/1/23
Venezuela,VEN,South America,America,-66.59,6.424,2023,5.607,,1.321,0.491,0.518,0.192,0.086,1/1/23
Indonesia,IDN,Asia,East Asia & Pacific,113.921,-0.789,2023,5.568,1.361,1.184,0.472,0.779,0.399,0.055,1/1/23
Bulgaria,BGR,Europe,Europe & Central Asia,25.486,42.734,2023,5.463,1.629,1.469,0.567,0.62,0.083,0.006,1/1/23
Armenia,ARM,Asia,Europe & Central Asia,45.038,40.069,2023,5.455,1.444,1.154,0.603,0.65,0.051,0.173,1/1/23
South Africa,ZAF,Africa,Sub-Saharan Africa,22.938,-30.559,2023,5.422,1.389,1.369,0.322,0.537,0.078,0.034,1/1/23
North Macedonia,MKD,Europe,Europe & Central Asia,21.745,41.609,2023,5.369,1.475,1.277,0.569,0.58,0.194,0.015,1/1/23
Algeria,DZA,Africa,Middle East & North Africa,1.66,28.034,2023,5.364,1.324,1.191,0.568,0.247,0.091,0.2,1/1/23
Hong Kong S.A.R. of China,HKG,Asia,East Asia & Pacific,114.109,22.396,2023,5.316,1.909,1.184,0.857,0.485,0.147,0.402,1/1/23
Albania,ALB,Europe,Europe & Central Asia,20.168,41.153,2023,5.304,1.438,0.924,0.638,0.69,0.138,0.049,1/1/23
Tajikistan,TJK,Asia,Europe & Central Asia,71.276,38.861,2023,5.281,,,,,,,1/1/23
Congo (Brazzaville),COG,Africa,Sub-Saharan Africa,15.828,-0.228,2023,5.221,0.892,0.622,0.306,0.523,0.124,0.138,1/1/23
Mozambique,MOZ,Africa,Sub-Saharan Africa,35.53,-18.666,2023,5.216,0.56,0.883,0.156,0.728,0.158,0.196,1/1/23
Georgia,GEO,Asia,Europe & Central Asia,83.113,32.961,2023,5.185,1.467,0.99,0.524,0.68,0,0.174,1/1/23
Iraq,IRQ,Asia,Middle East & North Africa,43.679,33.223,2023,5.166,1.249,0.996,0.498,0.425,0.141,0.048,1/1/23
Nepal,NPL,Asia,South Asia,84.124,28.395,2023,5.158,0.965,0.99,0.443,0.653,0.209,0.115,1/1/23
Laos,LAO,Asia,East Asia & Pacific,102.495,19.856,2023,5.139,1.208,0.846,0.423,0.796,0.17,0.167,1/1/23
Gabon,GAB,Africa,Sub-Saharan Africa,11.609,-0.804,2023,5.106,1.403,1.038,0.344,0.516,0.045,0.1,1/1/23
Ivory Coast,CIV,Africa,Sub-Saharan Africa,-5.547,7.54,2023,5.08,1.08,0.578,0.288,0.547,0.12,0.164,1/1/23
Guinea,GIN,Africa,Sub-Saharan Africa,-9.697,9.946,2023,5.023,0.831,0.622,0.236,0.521,0.21,0.107,1/1/23
Turkey,TUR,Asia,Europe & Central Asia,35.243,38.964,2023,4.975,1.702,1.175,0.631,0.202,0.068,0.115,1/1/23
Senegal,SEN,Africa,Sub-Saharan Africa,-14.452,14.497,2023,4.969,0.927,0.751,0.392,0.607,0.152,0.069,1/1/23
Iran,IRN,Asia,Middle East & North Africa,53.688,32.428,2023,4.923,1.435,1.136,0.571,0.366,0.235,0.123,1/1/23
Azerbaijan,AZE,Asia,Europe & Central Asia,47.577,40.143,2023,4.893,1.433,0.876,0.496,0.668,0.112,0.199,1/1/23
Nigeria,NGA,Africa,Sub-Saharan Africa,8.675,9.082,2023,4.881,1.042,1.075,0.256,0.566,0.201,0.019,1/1/23
State of Palestine,PSE,Asia,Middle East & North Africa,17.267,42.094,2023,4.879,,,,,,,1/1/23
Cameroon,CMR,Africa,Sub-Saharan Africa,12.355,7.37,2023,4.874,0.943,0.856,0.288,0.521,0.126,0.06,1/1/23
Ukraine,UKR,Europe,Europe & Central Asia,31.166,48.379,2023,4.873,1.35,1.315,0.513,0.631,0.285,0.025,1/1/23
Namibia,NAM,Africa,Sub-Saharan Africa,18.49,-22.958,2023,4.832,1.266,1.212,0.307,0.47,0.069,0.061,1/1/23
Morocco,MAR,Africa,Middle East & North Africa,-7.093,31.792,2023,4.795,1.213,0.471,0.495,0.631,0.042,0.082,1/1/23
Pakistan,PAK,Asia,South Asia,69.345,30.375,2023,4.657,1.069,0.6,0.321,0.542,0.144,0.074,1/1/23
Niger,NER,Africa,Sub-Saharan Africa,8.082,17.608,2023,4.556,0.573,0.677,0.293,0.615,0.145,0.147,1/1/23
Burkina Faso,BFA,Africa,Sub-Saharan Africa,-1.562,12.238,2023,4.548,0.756,0.685,0.274,0.483,0.173,0.179,1/1/23
Mauritania,MRT,Africa,Sub-Saharan Africa,-10.941,21.008,2023,4.505,1.078,0.705,0.4,0.343,0.133,0.198,1/1/23
Gambia,GMB,Africa,Sub-Saharan Africa,-15.31,13.443,2023,4.485,0.75,0.684,0.33,0.459,0.324,0.048,1/1/23
Chad,TCD,Africa,Sub-Saharan Africa,18.732,15.454,2023,4.471,0.603,0.805,0.199,0.411,0.218,0.113,1/1/23
Kenya,KEN,Africa,Sub-Saharan Africa,37.906,-0.024,2023,4.47,1.037,0.895,0.353,0.519,0.282,0.069,1/1/23
Tunisia,TUN,Africa,Middle East & North Africa,9.537,33.887,2023,4.422,1.306,0.955,0.579,0.254,0.024,0.018,1/1/23
Benin,BEN,Africa,Sub-Saharan Africa,2.316,9.308,2023,4.377,0.914,0.128,0.284,0.567,0.112,0.252,1/1/23
Uganda,UGA,Africa,Sub-Saharan Africa,32.29,1.373,2023,4.372,0.772,1.151,0.373,0.587,0.178,0.054,1/1/23
Myanmar,MMR,Asia,East Asia & Pacific,95.956,21.914,2023,4.354,0.978,0.988,0.436,0.45,0.401,0.174,1/1/23
Cambodia,KHM,Asia,East Asia & Pacific,104.991,12.566,2023,4.341,1.011,1.019,0.442,0.863,0.17,0.071,1/1/23
Ghana,GHA,Africa,Sub-Saharan Africa,-1.023,7.947,2023,4.289,1.077,0.747,0.36,0.623,0.183,0.028,1/1/23
Liberia,LBR,Africa,Sub-Saharan Africa,-9.429,6.428,2023,4.269,0.619,0.673,0.301,0.546,0.178,0.075,1/1/23
Mali,MLI,Africa,Sub-Saharan Africa,-3.996,17.571,2023,4.232,0.747,0.688,0.267,0.586,0.12,0.09,1/1/23
Madagascar,MDG,Africa,Sub-Saharan Africa,46.869,-18.767,2023,4.228,0.628,0.823,0.333,0.25,0.172,0.123,1/1/23
Togo,TGO,Africa,Sub-Saharan Africa,0.825,8.62,2023,4.214,0.758,0.586,0.32,0.453,0.127,0.156,1/1/23
Jordan,JOR,Asia,Middle East & North Africa,36.238,30.585,2023,4.186,1.262,0.983,0.594,0.593,0.059,0.189,1/1/23
India,IND,Asia,South Asia,78.963,20.594,2023,4.054,1.166,0.653,0.417,0.767,0.174,0.122,1/1/23
Egypt,EGY,Africa,Middle East & North Africa,30.802,26.821,2023,3.977,1.37,0.996,0.488,0.49,0.025,0.259,1/1/23
Sri Lanka,LKA,Asia,South Asia,80.772,7.873,2023,3.898,1.361,1.179,0.586,0.583,0.144,0.031,1/1/23
Bangladesh,BGD,Asia,South Asia,90.356,23.685,2023,3.886,1.122,0.249,0.513,0.775,0.14,0.167,1/1/23
Ethiopia,ETH,Africa,Sub-Saharan Africa,40.49,9.145,2023,3.861,0.792,0.915,0.42,0.441,0.27,0.101,1/1/23
Tanzania,TZA,Africa,Sub-Saharan Africa,34.889,-6.369,2023,3.781,0.82,0.706,0.38,0.709,0.191,0.257,1/1/23
Comoros,COM,Africa,Sub-Saharan Africa,43.872,-11.875,2023,3.566,0.896,0.328,0.37,0.172,0.128,0.16,1/1/23
Yemen,YEM,Asia,Middle East & North Africa,48.516,15.553,2023,3.561,0.671,1.281,0.293,0.362,0.08,0.113,1/1/23
Zambia,ZMB,Africa,Sub-Saharan Africa,27.849,-13.134,2023,3.502,0.899,0.809,0.264,0.727,0.168,0.109,1/1/23
Eswatini,SWZ,Africa,Sub-Saharan Africa,31.466,-26.523,2023,3.502,1.255,0.925,0.176,0.284,0.059,0.116,1/1/23
Malawi,MWI,Africa,Sub-Saharan Africa,34.302,-13.254,2023,3.421,0.617,0.41,0.349,0.571,0.135,0.136,1/1/23
Botswana,BWA,Africa,Sub-Saharan Africa,24.685,-22.328,2023,3.383,1.445,0.969,0.241,0.567,0.014,0.082,1/1/23
Zimbabwe,ZWE,Africa,Sub-Saharan Africa,29.155,-19.015,2023,3.341,0.748,0.85,0.232,0.487,0.096,0.131,1/1/23
Congo (Kinshasa),COD,Africa,Sub-Saharan Africa,15.828,-0.228,2023,3.295,0.534,0.665,0.262,0.473,0.189,0.072,1/1/23
Sierra Leone,SLE,Africa,Sub-Saharan Africa,-11.78,8.461,2023,3.245,0.654,0.566,0.253,0.469,0.181,0.053,1/1/23
Lesotho,LSO,Africa,Sub-Saharan Africa,28.234,-29.61,2023,3.186,0.771,0.851,,0.523,0.082,0.085,1/1/23
Lebanon,LBN,Asia,Middle East & North Africa,35.862,33.855,2023,2.707,1.377,0.577,0.556,0.173,0.068,0.029,1/1/23
Afghanistan,AFG,Asia,South Asia,67.71,33.939,2023,1.721,0.628,,0.242,,0.091,0.088,1/1/23
Finland,FIN,Europe,Europe & Central Asia,25.748,61.924,2022,7.804,1.888,1.585,0.535,0.772,0.126,0.535,1/1/22
Denmark,DNK,Europe,Europe & Central Asia,9.502,56.264,2022,7.586,1.949,1.548,0.537,0.734,0.208,0.525,1/1/22
Iceland,ISL,Europe,Europe & Central Asia,-19.021,64.963,2022,7.53,1.926,1.62,0.559,0.738,0.25,0.187,1/1/22
Israel,ISR,Asia,Middle East & North Africa,34.852,31.046,2022,7.473,1.833,1.521,0.577,0.569,0.124,0.158,1/1/22
Netherlands,NLD,Europe,Europe & Central Asia,5.291,52.133,2022,7.403,1.942,1.488,0.545,0.672,0.251,0.394,1/1/22
Sweden,SWE,Europe,Europe & Central Asia,18.644,60.128,2022,7.395,1.921,1.51,0.562,0.754,0.225,0.52,1/1/22
Norway,NOR,Europe,Europe & Central Asia,8.469,60.472,2022,7.315,1.994,1.521,0.544,0.752,0.212,0.463,1/1/22
Switzerland,CHE,Europe,Europe & Central Asia,8.228,46.818,2022,7.24,2.022,1.463,0.582,0.678,0.151,0.475,1/1/22
Luxembourg,LUX,Europe,Europe & Central Asia,6.13,49.815,2022,7.228,2.2,1.357,0.549,0.71,0.149,0.418,1/1/22
New Zealand,NZL,Oceania,East Asia & Pacific,174.886,-40.901,2022,7.123,1.842,1.544,0.513,0.672,0.23,0.471,1/1/22
Austria,AUT,Europe,Europe & Central Asia,14.55,47.516,2022,7.097,1.927,1.382,0.535,0.63,0.191,0.31,1/1/22
Australia,AUS,Oceania,East Asia & Pacific,133.775,-25.274,2022,7.095,1.899,1.497,0.532,0.677,0.242,0.31,1/1/22
Canada,CAN,North America,America,-106.347,56.13,2022,6.961,1.881,1.484,0.541,0.656,0.218,0.364,1/1/22
Ireland,IRL,Europe,Europe & Central Asia,-8.244,53.413,2022,6.911,2.152,1.425,0.539,0.656,0.186,0.409,1/1/22
United States,USA,North America,America,-95.713,37.09,2022,6.894,1.98,1.46,0.39,0.557,0.21,0.172,1/1/22
Germany,DEU,Europe,Europe & Central Asia,10.452,51.166,2022,6.892,1.919,1.401,0.539,0.618,0.153,0.365,1/1/22
Belgium,BEL,Europe,Europe & Central Asia,4.47,50.504,2022,6.859,1.907,1.449,0.528,0.59,0.137,0.273,1/1/22
Czechia,CZE,Europe,Europe & Central Asia,15.473,49.817,2022,6.845,1.823,1.544,0.477,0.693,0.158,0.05,1/1/22
United Kingdom,GBR,Europe,Europe & Central Asia,-1.436,52.378,2022,6.796,1.857,1.366,0.511,0.626,0.272,0.34,1/1/22
Lithuania,LTU,Europe,Europe & Central Asia,23.881,55.169,2022,6.763,1.808,1.511,0.432,0.487,0.059,0.089,1/1/22
France,FRA,Europe,Europe & Central Asia,2.214,46.228,2022,6.661,1.856,1.433,0.566,0.582,0.083,0.27,1/1/22
Slovenia,SVN,Europe,Europe & Central Asia,14.995,46.151,2022,6.65,1.815,1.539,0.532,0.707,0.144,0.113,1/1/22
Costa Rica,CRI,North America,America,-83.753,9.749,2022,6.609,1.587,1.34,0.503,0.683,0.099,0.116,1/1/22
Romania,ROU,Europe,Europe & Central Asia,24.967,45.943,2022,6.589,1.726,1.28,0.423,0.631,0.044,,1/1/22
Singapore,SGP,Asia,East Asia & Pacific,103.82,1.352,2022,6.587,2.168,1.354,0.607,0.66,0.17,0.561,1/1/22
United Arab Emirates,ARE,Asia,Middle East & North Africa,53.848,23.424,2022,6.571,2.015,1.223,0.401,0.745,0.188,0.247,1/1/22
Taiwan Province of China,TWN,Asia,East Asia & Pacific,120.961,23.698,2022,6.535,1.89,1.372,0.492,0.562,0.067,0.178,1/1/22
Uruguay,URY,South America,America,-55.766,-32.523,2022,6.494,1.617,1.445,0.435,0.683,0.102,0.254,1/1/22
Slovakia,SVK,Europe,Europe & Central Asia,19.699,48.669,2022,6.469,1.731,1.544,0.472,0.494,0.128,0.022,1/1/22
Saudi Arabia,SAU,Asia,Middle East & North Africa,45.079,23.886,2022,6.463,1.861,1.37,0.351,0.682,0.093,0.17,1/1/22
Estonia,EST,Europe,Europe & Central Asia,25.014,58.595,2022,6.455,1.798,1.526,0.494,0.728,0.153,0.372,1/1/22
Spain,ESP,Europe,Europe & Central Asia,-3.749,40.464,2022,6.436,1.798,1.491,0.567,0.533,0.101,0.157,1/1/22
Italy,ITA,Europe,Europe & Central Asia,12.567,41.872,2022,6.405,1.832,1.365,0.559,0.438,0.097,0.063,1/1/22
Kosovo,XKK,Europe,Europe & Central Asia,21.167,42.24,2022,6.368,1.374,1.269,0.372,0.639,0.275,0.045,1/1/22
Chile,CHL,South America,America,-71.543,-35.675,2022,6.334,1.645,1.384,0.511,0.546,0.131,0.076,1/1/22
Mexico,MEX,North America,America,-102.553,23.635,2022,6.33,1.55,1.169,0.389,0.632,0.086,0.115,1/1/22
Malta,MLT,Europe,Europe & Central Asia,14.375,35.937,2022,6.3,1.841,1.468,0.547,0.671,0.2,0.143,1/1/22
Panama,PAN,North America,America,-80.782,8.538,2022,6.265,1.714,1.402,0.475,0.63,0.065,0.036,1/1/22
Poland,POL,Europe,Europe & Central Asia,19.145,51.919,2022,6.26,1.767,1.474,0.477,0.511,0.12,0.139,1/1/22
Nicaragua,NIC,North America,America,-85.207,12.865,2022,6.259,1.109,1.292,0.385,0.66,0.148,0.218,1/1/22
Latvia,LVA,Europe,Europe & Central Asia,24.603,56.88,2022,6.213,1.737,1.505,0.405,0.58,0.107,0.071,1/1/22
Bahrain,BHR,Asia,Middle East & North Africa,50.638,25.93,2022,6.173,1.883,1.269,0.389,0.748,0.199,0.138,1/1/22
Guatemala,GTM,North America,America,-90.231,15.783,2022,6.15,1.287,1.188,0.31,0.631,0.106,0.066,1/1/22
Kazakhstan,KAZ,Asia,Europe & Central Asia,66.924,48.02,2022,6.144,1.664,1.491,0.389,0.628,0.136,0.149,1/1/22
Serbia,SRB,Europe,Europe & Central Asia,21.006,44.017,2022,6.144,1.552,1.343,0.424,0.617,0.246,0.081,1/1/22
Cyprus,CYP,Europe,Europe & Central Asia,33.43,35.126,2022,6.13,1.824,1.224,0.58,0.455,0.104,0.05,1/1/22
Japan,JPN,Asia,East Asia & Pacific,138.253,36.205,2022,6.129,1.825,1.396,0.622,0.556,0.009,0.207,1/1/22
Croatia,HRV,Europe,Europe & Central Asia,15.2,45.1,2022,6.125,1.727,1.455,0.475,0.5,0.087,0.003,1/1/22
Brazil,BRA,South America,America,-51.925,-14.235,2022,6.125,1.454,1.25,0.387,0.558,0.131,0.137,1/1/22
El Salvador,SLV,North America,America,-88.897,13.794,2022,6.122,1.278,1.044,0.383,0.713,0.079,0.222,1/1/22
Hungary,HUN,Europe,Europe & Central Asia,19.503,47.162,2022,6.041,1.754,1.519,0.435,0.501,0.105,0.065,1/1/22
Argentina,ARG,South America,America,-63.617,-38.416,2022,6.024,1.59,1.388,0.427,0.587,0.088,0.082,1/1/22
Honduras,HND,North America,America,-86.242,15.2,2022,6.023,1.115,1.072,0.341,0.613,0.189,0.062,1/1/22
Uzbekistan,UZB,Asia,Europe & Central Asia,64.585,41.377,2022,6.014,1.227,1.347,0.375,0.74,0.26,0.208,1/1/22
Malaysia,MYS,Asia,East Asia & Pacific,101.976,4.21,2022,6.012,1.665,1.155,0.385,0.659,0.222,0.122,1/1/22
Portugal,PRT,Europe,Europe & Central Asia,-8.224,39.4,2022,5.968,1.758,1.356,0.537,0.693,0.031,0.037,1/1/22
South Korea,KOR,Asia,East Asia & Pacific,126.967,37.55,2022,5.951,1.853,1.188,0.603,0.446,0.112,0.163,1/1/22
Greece,GRC,Europe,Europe & Central Asia,21.824,39.074,2022,5.931,1.708,1.247,0.535,0.248,0.008,0.097,1/1/22
Mauritius,MUS,Africa,Sub-Saharan Africa,57.552,-20.348,2022,5.902,1.589,1.382,0.336,0.574,0.121,0.11,1/1/22
Thailand,THA,Asia,East Asia & Pacific,100.993,15.87,2022,5.843,1.515,1.344,0.461,0.624,0.291,0.013,1/1/22
Mongolia,MNG,Asia,East Asia & Pacific,103.847,46.862,2022,5.84,1.379,1.494,0.244,0.425,0.239,0.058,1/1/22
Kyrgyzstan,KGZ,Asia,Europe & Central Asia,74.766,41.204,2022,5.825,1.061,1.439,0.417,0.735,0.234,0.018,1/1/22
Moldova,MDA,Europe,Europe & Central Asia,28.37,47.412,2022,5.819,1.425,1.302,0.375,0.61,0.093,0.02,1/1/22
China,CHN,Asia,East Asia & Pacific,104.195,35.862,2022,5.818,1.51,1.249,0.468,0.666,0.115,0.145,1/1/22
Vietnam,VNM,Asia,East Asia & Pacific,108.277,14.058,2022,5.763,1.349,1.212,0.381,0.741,0.134,0.122,1/1/22
Paraguay,PRY,South America,America,-58.444,-23.443,2022,5.738,1.428,1.427,0.392,0.678,0.148,0.062,1/1/22
Montenegro,MNE,Europe,Europe & Central Asia,19.374,42.709,2022,5.722,1.537,1.385,0.424,0.563,0.17,0.061,1/1/22
Jamaica,JAM,North America,America,-77.298,18.11,2022,5.703,1.305,1.329,0.411,0.587,0.079,0.039,1/1/22
Bolivia,BOL,South America,America,-63.589,-16.29,2022,5.684,1.24,1.187,0.329,0.648,0.103,0.06,1/1/22
Russia,RUS,Asia,Europe & Central Asia,105.319,61.524,2022,5.661,1.68,1.383,0.366,0.449,0.12,0.091,1/1/22
Bosnia and Herzegovina,BIH,Europe,Europe & Central Asia,17.679,43.916,2022,5.633,1.467,1.361,0.429,0.485,0.247,0.008,1/1/22
Colombia,COL,South America,America,-74.297,4.571,2022,5.63,1.455,1.213,0.486,0.562,0.08,0.068,1/1/22
Dominican Republic,DOM,North America,America,-70.163,18.736,2022,5.569,1.536,1.227,0.351,0.623,0.083,0.195,1/1/22
Ecuador,ECU,South America,America,-78.183,-1.831,2022,5.559,1.343,1.173,0.476,0.56,0.079,0.069,1/1/22
Peru,PER,South America,America,-75.015,-9.19,2022,5.526,1.39,1.153,0.499,0.549,0.073,0.027,1/1/22
Philippines,PHL,Asia,East Asia & Pacific,121.774,12.88,2022,5.523,1.238,1.108,0.286,0.714,0.104,0.141,1/1/22
Bulgaria,BGR,Europe,Europe & Central Asia,25.486,42.734,2022,5.466,1.635,1.457,0.408,0.557,0.106,0.013,1/1/22
Nepal,NPL,Asia,South Asia,84.124,28.395,2022,5.36,0.979,1.027,0.281,0.567,0.215,0.104,1/1/22
Armenia,ARM,Asia,Europe & Central Asia,45.038,40.069,2022,5.342,1.466,1.134,0.443,0.551,0.053,0.16,1/1/22
Tajikistan,TJK,Asia,Europe & Central Asia,71.276,38.861,2022,5.33,0.972,1.248,0.291,0.599,0.104,0.292,1/1/22
Algeria,DZA,Africa,Middle East & North Africa,1.66,28.034,2022,5.329,1.353,1.298,0.409,0.252,0.073,0.152,1/1/22
Hong Kong S.A.R. of China,HKG,Asia,East Asia & Pacific,114.109,22.396,2022,5.308,1.951,1.201,0.702,0.407,0.123,0.39,1/1/22
Albania,ALB,Europe,Europe & Central Asia,20.168,41.153,2022,5.277,1.449,0.951,0.48,0.549,0.133,0.037,1/1/22
Indonesia,IDN,Asia,East Asia & Pacific,113.921,-0.789,2022,5.277,1.384,1.169,0.314,0.663,0.422,0.038,1/1/22
South Africa,ZAF,Africa,Sub-Saharan Africa,22.938,-30.559,2022,5.275,1.417,1.428,0.149,0.464,0.09,0.019,1/1/22
Congo (Brazzaville),COG,Africa,Sub-Saharan Africa,15.828,-0.228,2022,5.267,0.921,0.665,0.145,0.464,0.134,0.136,1/1/22
North Macedonia,MKD,Europe,Europe & Central Asia,21.745,41.609,2022,5.254,1.498,1.171,0.408,0.515,0.207,0.02,1/1/22
Venezuela,VEN,South America,America,-66.59,6.424,2022,5.211,,1.257,0.341,0.369,0.205,0.084,1/1/22
Laos,LAO,Asia,East Asia & Pacific,102.495,19.856,2022,5.111,1.232,0.853,0.257,0.715,0.185,0.162,1/1/22
Georgia,GEO,Asia,Europe & Central Asia,83.113,32.961,2022,5.109,1.477,0.947,0.366,0.539,0,0.201,1/1/22
Guinea,GIN,Africa,Sub-Saharan Africa,-9.697,9.946,2022,5.072,0.844,0.776,0.072,0.369,0.204,0.102,1/1/22
Ukraine,UKR,Europe,Europe & Central Asia,31.166,48.379,2022,5.071,1.358,1.354,0.355,0.551,0.265,0.016,1/1/22
Ivory Coast,CIV,Africa,Sub-Saharan Africa,-5.547,7.54,2022,5.053,1.094,0.584,0.12,0.467,0.138,0.131,1/1/22
Gabon,GAB,Africa,Sub-Saharan Africa,11.609,-0.804,2022,5.035,1.438,1.021,0.183,0.346,0.036,0.102,1/1/22
Nigeria,NGA,Africa,Sub-Saharan Africa,8.675,9.082,2022,4.981,1.065,1.007,0.092,0.448,0.176,0.013,1/1/22
Cameroon,CMR,Africa,Sub-Saharan Africa,12.355,7.37,2022,4.973,0.965,0.871,0.118,0.405,0.144,0.059,1/1/22
Mozambique,MOZ,Africa,Sub-Saharan Africa,35.53,-18.666,2022,4.954,0.57,0.885,,0.625,0.161,0.192,1/1/22
Iraq,IRQ,Asia,Middle East & North Africa,43.679,33.223,2022,4.941,1.281,0.953,0.324,0.351,0.134,0.038,1/1/22
State of Palestine,PSE,Asia,Middle East & North Africa,17.267,42.094,2022,4.908,1.144,1.309,,0.416,0.065,0.067,1/1/22
Morocco,MAR,Africa,Middle East & North Africa,-7.093,31.792,2022,4.903,1.236,0.535,0.337,0.54,0.013,0.085,1/1/22
Iran,IRN,Asia,Middle East & North Africa,53.688,32.428,2022,4.876,1.465,1.102,0.411,0.281,0.229,0.13,1/1/22
Senegal,SEN,Africa,Sub-Saharan Africa,-14.452,14.497,2022,4.855,0.943,0.727,0.231,0.519,0.142,0.06,1/1/22
Mauritania,MRT,Africa,Sub-Saharan Africa,-10.941,21.008,2022,4.724,1.099,0.764,0.244,0.32,0.13,0.195,1/1/22
Burkina Faso,BFA,Africa,Sub-Saharan Africa,-1.562,12.238,2022,4.638,0.768,0.814,0.107,0.419,0.188,0.113,1/1/22
Namibia,NAM,Africa,Sub-Saharan Africa,18.49,-22.958,2022,4.631,1.289,1.126,0.145,0.383,0.069,0.071,1/1/22
Turkey,TUR,Asia,Europe & Central Asia,35.243,38.964,2022,4.614,1.714,1.148,0.467,0.125,0.095,0.096,1/1/22
Ghana,GHA,Africa,Sub-Saharan Africa,-1.023,7.947,2022,4.605,1.101,0.756,0.197,0.526,0.211,0.035,1/1/22
Pakistan,PAK,Asia,South Asia,69.345,30.375,2022,4.555,1.081,0.657,0.158,0.511,0.141,0.102,1/1/22
Niger,NER,Africa,Sub-Saharan Africa,8.082,17.608,2022,4.501,0.561,0.628,0.137,0.54,0.154,0.14,1/1/22
Tunisia,TUN,Africa,Middle East & North Africa,9.537,33.887,2022,4.497,1.333,0.981,0.422,0.259,0.022,0.016,1/1/22
Kenya,KEN,Africa,Sub-Saharan Africa,37.906,-0.024,2022,4.487,1.051,0.881,0.19,0.418,0.291,0.055,1/1/22
Sri Lanka,LKA,Asia,South Asia,80.772,7.873,2022,4.442,1.422,1.224,0.426,0.539,0.12,0.086,1/1/22
Uganda,UGA,Africa,Sub-Saharan Africa,32.29,1.373,2022,4.432,0.785,1.144,0.201,0.425,0.197,0.051,1/1/22
Chad,TCD,Africa,Sub-Saharan Africa,18.732,15.454,2022,4.397,0.622,0.962,0.043,0.393,0.255,0.088,1/1/22
Cambodia,KHM,Asia,East Asia & Pacific,104.991,12.566,2022,4.393,1.025,1.024,0.283,0.768,0.176,0.051,1/1/22
Benin,BEN,Africa,Sub-Saharan Africa,2.316,9.308,2022,4.374,0.924,0.242,0.124,0.481,0.114,0.253,1/1/22
Myanmar,MMR,Asia,East Asia & Pacific,95.956,21.914,2022,4.372,1.032,1.125,0.269,0.46,0.4,0.194,1/1/22
Bangladesh,BGD,Asia,South Asia,90.356,23.685,2022,4.282,1.133,0.513,0.355,0.617,0.139,0.165,1/1/22
Gambia,GMB,Africa,Sub-Saharan Africa,-15.31,13.443,2022,4.279,0.761,0.614,0.174,0.286,0.332,0.033,1/1/22
Mali,MLI,Africa,Sub-Saharan Africa,-3.996,17.571,2022,4.198,0.763,0.637,0.106,0.441,0.121,0.059,1/1/22
Egypt,EGY,Africa,Middle East & North Africa,30.802,26.821,2022,4.17,1.377,0.972,0.326,0.467,0.038,0.25,1/1/22
Togo,TGO,Africa,Sub-Saharan Africa,0.825,8.62,2022,4.137,0.77,0.642,0.161,0.367,0.149,0.136,1/1/22
Jordan,JOR,Asia,Middle East & North Africa,36.238,30.585,2022,4.12,1.292,0.98,0.438,0.517,0.056,0.173,1/1/22
Ethiopia,ETH,Africa,Sub-Saharan Africa,40.49,9.145,2022,4.091,0.793,1.114,0.25,0.451,0.283,0.101,1/1/22
Liberia,LBR,Africa,Sub-Saharan Africa,-9.429,6.428,2022,4.042,0.628,0.644,0.141,0.471,0.219,0.071,1/1/22
India,IND,Asia,South Asia,78.963,20.594,2022,4.036,1.159,0.674,0.252,0.685,0.175,0.111,1/1/22
Madagascar,MDG,Africa,Sub-Saharan Africa,46.869,-18.767,2022,4.019,0.632,0.779,0.178,0.187,0.177,0.134,1/1/22
Zambia,ZMB,Africa,Sub-Saharan Africa,27.849,-13.134,2022,3.982,0.914,0.89,0.095,0.545,0.189,0.08,1/1/22
Tanzania,TZA,Africa,Sub-Saharan Africa,34.889,-6.369,2022,3.694,0.836,0.787,0.214,0.607,0.234,0.269,1/1/22
Comoros,COM,Africa,Sub-Saharan Africa,43.872,-11.875,2022,3.545,0.914,0.327,0.215,0.117,0.129,0.145,1/1/22
Malawi,MWI,Africa,Sub-Saharan Africa,34.302,-13.254,2022,3.495,0.637,0.479,0.189,0.49,0.139,0.129,1/1/22
Botswana,BWA,Africa,Sub-Saharan Africa,24.685,-22.328,2022,3.435,1.471,1.041,0.087,0.48,0.021,0.071,1/1/22
Congo (Kinshasa),COD,Africa,Sub-Saharan Africa,15.828,-0.228,2022,3.207,0.531,0.784,0.105,0.375,0.183,0.068,1/1/22
Zimbabwe,ZWE,Africa,Sub-Saharan Africa,29.155,-19.015,2022,3.204,0.758,0.881,0.069,0.363,0.112,0.117,1/1/22
Sierra Leone,SLE,Africa,Sub-Saharan Africa,-11.78,8.461,2022,3.138,0.67,0.54,0.092,0.371,0.193,0.051,1/1/22
Lebanon,LBN,Asia,Middle East & North Africa,35.862,33.855,2022,2.392,1.417,0.476,0.398,0.123,0.061,0.027,1/1/22
Afghanistan,AFG,Asia,South Asia,67.71,33.939,2022,1.859,0.645,,0.087,,0.093,0.059,1/1/22
Finland,FIN,Europe,Europe & Central Asia,25.748,61.924,2021,7.821,1.892,1.258,0.775,0.736,0.109,0.534,1/1/21
Denmark,DNK,Europe,Europe & Central Asia,9.502,56.264,2021,7.636,1.953,1.243,0.777,0.719,0.188,0.532,1/1/21
Iceland,ISL,Europe,Europe & Central Asia,-19.021,64.963,2021,7.557,1.936,1.32,0.803,0.718,0.27,0.191,1/1/21
Switzerland,CHE,Europe,Europe & Central Asia,8.228,46.818,2021,7.512,2.026,1.226,0.822,0.677,0.147,0.461,1/1/21
Netherlands,NLD,Europe,Europe & Central Asia,5.291,52.133,2021,7.415,1.945,1.206,0.787,0.651,0.271,0.419,1/1/21
Luxembourg*,LUX,Europe,Europe & Central Asia,6.13,49.815,2021,7.404,2.209,1.155,0.79,0.7,0.12,0.388,1/1/21
Sweden,SWE,Europe,Europe & Central Asia,18.644,60.128,2021,7.384,1.92,1.204,0.803,0.724,0.218,0.512,1/1/21
Norway,NOR,Europe,Europe & Central Asia,8.469,60.472,2021,7.365,1.997,1.239,0.786,0.728,0.217,0.474,1/1/21
Israel,ISR,Asia,Middle East & North Africa,34.852,31.046,2021,7.364,1.826,1.221,0.818,0.568,0.155,0.143,1/1/21
New Zealand,NZL,Oceania,East Asia & Pacific,174.886,-40.901,2021,7.2,1.852,1.235,0.752,0.68,0.245,0.483,1/1/21
Austria,AUT,Europe,Europe & Central Asia,14.55,47.516,2021,7.163,1.931,1.165,0.774,0.623,0.193,0.329,1/1/21
Australia,AUS,Oceania,East Asia & Pacific,133.775,-25.274,2021,7.162,1.9,1.203,0.772,0.676,0.258,0.341,1/1/21
Ireland,IRL,Europe,Europe & Central Asia,-8.244,53.413,2021,7.041,2.129,1.166,0.779,0.627,0.19,0.408,1/1/21
Germany,DEU,Europe,Europe & Central Asia,10.452,51.166,2021,7.034,1.924,1.088,0.776,0.585,0.163,0.358,1/1/21
Canada,CAN,North America,America,-106.347,56.13,2021,7.025,1.886,1.188,0.783,0.659,0.217,0.368,1/1/21
United States,USA,North America,America,-95.713,37.09,2021,6.977,1.982,1.182,0.628,0.574,0.22,0.177,1/1/21
United Kingdom,GBR,Europe,Europe & Central Asia,-1.436,52.378,2021,6.943,1.867,1.143,0.75,0.597,0.289,0.329,1/1/21
Czechia,CZE,Europe,Europe & Central Asia,15.473,49.817,2021,6.92,1.815,1.26,0.715,0.66,0.158,0.048,1/1/21
Belgium,BEL,Europe,Europe & Central Asia,4.47,50.504,2021,6.805,1.907,1.106,0.764,0.492,0.049,0.204,1/1/21
France,FRA,Europe,Europe & Central Asia,2.214,46.228,2021,6.687,1.863,1.219,0.808,0.567,0.07,0.266,1/1/21
Bahrain,BHR,Asia,Middle East & North Africa,50.638,25.93,2021,6.647,1.854,1.029,0.625,0.693,0.199,0.155,1/1/21
Slovenia,SVN,Europe,Europe & Central Asia,14.995,46.151,2021,6.63,1.81,1.249,0.769,0.685,0.118,0.115,1/1/21
Costa Rica,CRI,North America,America,-83.753,9.749,2021,6.582,1.584,1.054,0.744,0.661,0.089,0.102,1/1/21
United Arab Emirates,ARE,Asia,Middle East & North Africa,53.848,23.424,2021,6.576,1.998,0.98,0.633,0.702,0.204,0.25,1/1/21
Saudi Arabia,SAU,Asia,Middle East & North Africa,45.079,23.886,2021,6.523,1.87,1.092,0.577,0.651,0.078,0.18,1/1/21
Taiwan Province of China,TWN,Asia,East Asia & Pacific,120.961,23.698,2021,6.512,1.897,1.095,0.733,0.542,0.075,0.168,1/1/21
Singapore,SGP,Asia,East Asia & Pacific,103.82,1.352,2021,6.48,2.149,1.127,0.851,0.672,0.163,0.587,1/1/21
Romania,ROU,Europe,Europe & Central Asia,24.967,45.943,2021,6.477,1.719,1.006,0.655,0.605,0.039,0.006,1/1/21
Spain,ESP,Europe,Europe & Central Asia,-3.749,40.464,2021,6.476,1.808,1.211,0.808,0.505,0.101,0.149,1/1/21
Uruguay,URY,South America,America,-55.766,-32.523,2021,6.474,1.615,1.18,0.672,0.665,0.103,0.265,1/1/21
Italy,ITA,Europe,Europe & Central Asia,12.567,41.872,2021,6.467,1.834,1.052,0.801,0.412,0.085,0.059,1/1/21
Kosovo,XKK,Europe,Europe & Central Asia,21.167,42.24,2021,6.455,1.362,0.949,0.569,0.599,0.309,0.035,1/1/21
Malta,MLT,Europe,Europe & Central Asia,14.375,35.937,2021,6.447,1.838,1.169,0.789,0.679,0.174,0.166,1/1/21
Lithuania,LTU,Europe,Europe & Central Asia,23.881,55.169,2021,6.446,1.804,1.204,0.659,0.496,0.053,0.077,1/1/21
Slovakia,SVK,Europe,Europe & Central Asia,19.699,48.669,2021,6.391,1.736,1.232,0.707,0.479,0.118,0.025,1/1/21
Estonia,EST,Europe,Europe & Central Asia,25.014,58.595,2021,6.341,1.793,1.232,0.728,0.689,0.123,0.333,1/1/21
Panama,PAN,North America,America,-80.782,8.538,2021,6.309,1.715,1.107,0.709,0.592,0.049,0.051,1/1/21
Brazil,BRA,South America,America,-51.925,-14.235,2021,6.293,1.462,1.044,0.615,0.546,0.131,0.134,1/1/21
Guatemala*,GTM,North America,America,-90.231,15.783,2021,6.262,1.274,0.831,0.522,0.662,0.112,0.115,1/1/21
Kazakhstan,KAZ,Asia,Europe & Central Asia,66.924,48.02,2021,6.234,1.668,1.22,0.611,0.584,0.134,0.157,1/1/21
Cyprus,CYP,Europe,Europe & Central Asia,33.43,35.126,2021,6.221,1.815,0.909,0.819,0.448,0.123,0.062,1/1/21
Latvia,LVA,Europe,Europe & Central Asia,24.603,56.88,2021,6.18,1.732,1.221,0.637,0.502,0.075,0.09,1/1/21
Serbia,SRB,Europe,Europe & Central Asia,21.006,44.017,2021,6.178,1.55,1.086,0.658,0.546,0.219,0.088,1/1/21
Chile,CHL,South America,America,-71.543,-35.675,2021,6.172,1.651,1.08,0.748,0.46,0.124,0.069,1/1/21
Nicaragua,NIC,North America,America,-85.207,12.865,2021,6.165,1.105,1.029,0.617,0.617,0.168,0.212,1/1/21
Mexico,MEX,North America,America,-102.553,23.635,2021,6.128,1.552,0.886,0.623,0.621,0.092,0.115,1/1/21
Croatia,HRV,Europe,Europe & Central Asia,15.2,45.1,2021,6.125,1.705,1.183,0.709,0.535,0.109,,1/1/21
Poland,POL,Europe,Europe & Central Asia,19.145,51.919,2021,6.123,1.758,1.174,0.712,0.523,0.124,0.14,1/1/21
El Salvador,SLV,North America,America,-88.897,13.794,2021,6.12,1.265,0.768,0.607,0.666,0.089,0.212,1/1/21
Kuwait*,KWT,Asia,Middle East & North Africa,47.482,29.312,2021,6.106,1.904,0.983,0.747,0.617,0.087,0.147,1/1/21
Hungary,HUN,Europe,Europe & Central Asia,19.503,47.162,2021,6.086,1.748,1.233,0.668,0.485,0.078,0.064,1/1/21
Mauritius,MUS,Africa,Sub-Saharan Africa,57.552,-20.348,2021,6.071,1.591,1.116,0.568,0.589,0.131,0.107,1/1/21
Uzbekistan,UZB,Asia,Europe & Central Asia,64.585,41.377,2021,6.063,1.219,1.092,0.6,0.716,0.283,0.24,1/1/21
Japan,JPN,Asia,East Asia & Pacific,138.253,36.205,2021,6.039,1.835,1.089,0.866,0.537,0.007,0.218,1/1/21
Honduras,HND,North America,America,-86.242,15.2,2021,6.022,1.111,0.885,0.555,0.582,0.202,0.076,1/1/21
Portugal,PRT,Europe,Europe & Central Asia,-8.224,39.4,2021,6.016,1.76,1.078,0.777,0.655,0.016,0.039,1/1/21
Argentina,ARG,South America,America,-63.617,-38.416,2021,5.967,1.592,1.102,0.662,0.555,0.081,0.085,1/1/21
Greece,GRC,Europe,Europe & Central Asia,21.824,39.074,2021,5.948,1.703,0.98,0.774,0.249,0.015,0.108,1/1/21
South Korea,KOR,Asia,East Asia & Pacific,126.967,37.55,2021,5.935,1.851,0.886,0.841,0.414,0.111,0.176,1/1/21
Philippines,PHL,Asia,East Asia & Pacific,121.774,12.88,2021,5.904,1.268,0.912,0.514,0.678,0.107,0.142,1/1/21
Thailand,THA,Asia,East Asia & Pacific,100.993,15.87,2021,5.891,1.535,1.096,0.697,0.617,0.321,0.026,1/1/21
Moldova,MDA,Europe,Europe & Central Asia,28.37,47.412,2021,5.857,1.417,1.008,0.597,0.561,0.102,0.028,1/1/21
Jamaica,JAM,North America,America,-77.298,18.11,2021,5.85,1.296,1.045,0.646,0.567,0.08,0.053,1/1/21
Kyrgyzstan,KGZ,Asia,Europe & Central Asia,74.766,41.204,2021,5.828,1.069,1.109,0.638,0.693,0.208,0.025,1/1/21
Belarus*,BLR,Europe,Europe & Central Asia,27.953,53.71,2021,5.821,1.562,1.157,0.629,0.342,0.04,0.282,1/1/21
Colombia,COL,South America,America,-74.297,4.571,2021,5.781,1.452,0.929,0.72,0.545,0.087,0.077,1/1/21
Bosnia and Herzegovina,BIH,Europe,Europe & Central Asia,17.679,43.916,2021,5.768,1.468,1.068,0.665,0.448,0.244,0.006,1/1/21
Mongolia,MNG,Asia,East Asia & Pacific,103.847,46.862,2021,5.761,1.393,1.197,0.467,0.398,0.247,0.059,1/1/21
Dominican Republic,DOM,North America,America,-70.163,18.736,2021,5.737,1.538,1.003,0.577,0.606,0.084,0.179,1/1/21
Malaysia,MYS,Asia,East Asia & Pacific,101.976,4.21,2021,5.711,1.689,0.938,0.62,0.654,0.213,0.126,1/1/21
Bolivia,BOL,South America,America,-63.589,-16.29,2021,5.6,1.256,0.88,0.555,0.627,0.112,0.064,1/1/21
China,CHN,Asia,East Asia & Pacific,104.195,35.862,2021,5.585,1.508,0.958,0.705,0.656,0.099,0.142,1/1/21
Paraguay,PRY,South America,America,-58.444,-23.443,2021,5.578,1.409,1.13,0.624,0.629,0.171,0.059,1/1/21
Peru,PER,South America,America,-75.015,-9.19,2021,5.559,1.397,0.865,0.735,0.545,0.09,0.037,1/1/21
Montenegro,MNE,Europe,Europe & Central Asia,19.374,42.709,2021,5.547,1.573,1.023,0.659,0.46,0.135,0.077,1/1/21
Ecuador,ECU,South America,America,-78.183,-1.831,2021,5.533,1.352,0.879,0.708,0.565,0.08,0.083,1/1/21
Vietnam,VNM,Asia,East Asia & Pacific,108.277,14.058,2021,5.485,1.252,0.932,0.611,0.707,0.143,0.105,1/1/21
Turkmenistan*,TKM,Asia,Europe & Central Asia,59.556,38.97,2021,5.474,1.484,1.319,0.516,0.649,0.314,0.032,1/1/21
North Cyprus*,CYP,Europe,Europe & Central Asia,33.43,35.126,2021,5.467,1.815,0.888,0.819,0.523,0.13,0.213,1/1/21
Russia,RUS,Asia,Europe & Central Asia,105.319,61.524,2021,5.459,1.685,1.095,0.586,0.401,0.117,0.08,1/1/21
Hong Kong S.A.R. of China,HKG,Asia,East Asia & Pacific,114.109,22.396,2021,5.425,1.957,0.954,0.942,0.4,0.147,0.383,1/1/21
Armenia,ARM,Asia,Europe & Central Asia,45.038,40.069,2021,5.399,1.434,0.82,0.668,0.558,0.054,0.21,1/1/21
Tajikistan,TJK,Asia,Europe & Central Asia,71.276,38.861,2021,5.377,0.966,1.005,0.518,0.572,0.118,0.304,1/1/21
Nepal,NPL,Asia,South Asia,84.124,28.395,2021,5.377,0.984,0.784,0.499,0.519,0.237,0.13,1/1/21
Bulgaria,BGR,Europe,Europe & Central Asia,25.486,42.734,2021,5.371,1.625,1.163,0.64,0.563,0.123,0.021,1/1/21
Libya*,LBY,Africa,Middle East & North Africa,17,25,2021,5.33,1.476,0.943,0.606,0.477,0.106,0.179,1/1/21
Indonesia,IDN,Asia,East Asia & Pacific,113.921,-0.789,2021,5.24,1.382,0.883,0.539,0.62,0.468,0.047,1/1/21
Ivory Coast,CIV,Africa,Sub-Saharan Africa,-5.547,7.54,2021,5.235,1.094,0.442,0.322,0.451,0.149,0.124,1/1/21
North Macedonia,MKD,Europe,Europe & Central Asia,21.745,41.609,2021,5.199,1.505,0.863,0.637,0.488,0.215,0.031,1/1/21
Albania,ALB,Europe,Europe & Central Asia,20.168,41.153,2021,5.199,1.439,0.646,0.719,0.511,0.138,0.028,1/1/21
South Africa,ZAF,Africa,Sub-Saharan Africa,22.938,-30.559,2021,5.194,1.425,1.088,0.361,0.442,0.089,0.046,1/1/21
Azerbaijan*,AZE,Asia,Europe & Central Asia,47.577,40.143,2021,5.173,1.458,1.093,0.56,0.601,0.023,0.341,1/1/21
Gambia*,GMB,Africa,Sub-Saharan Africa,-15.31,13.443,2021,5.164,0.785,0.621,0.369,0.367,0.388,0.103,1/1/21
Bangladesh,BGD,Asia,South Asia,90.356,23.685,2021,5.155,1.06,0.614,0.581,0.622,0.125,0.187,1/1/21
Laos,LAO,Asia,East Asia & Pacific,102.495,19.856,2021,5.14,1.239,0.654,0.479,0.679,0.197,0.184,1/1/21
Algeria,DZA,Africa,Middle East & North Africa,1.66,28.034,2021,5.122,1.363,0.97,0.643,0.146,0.106,0.15,1/1/21
Liberia*,LBR,Africa,Sub-Saharan Africa,-9.429,6.428,2021,5.122,0.636,0.67,0.309,0.405,0.178,0.08,1/1/21
Ukraine,UKR,Europe,Europe & Central Asia,31.166,48.379,2021,5.084,1.411,1.081,0.583,0.473,0.188,0.017,1/1/21
Congo (Kinshasa),COD,Africa,Sub-Saharan Africa,15.828,-0.228,2021,5.075,0.95,0.405,0.355,0.431,0.13,0.146,1/1/21
Morocco,MAR,Africa,Middle East & North Africa,-7.093,31.792,2021,5.06,1.208,0.268,0.565,0.492,0.02,0.102,1/1/21
Mozambique,MOZ,Africa,Sub-Saharan Africa,35.53,-18.666,2021,5.048,0.578,0.66,0.191,0.593,0.185,0.2,1/1/21
Cameroon,CMR,Africa,Sub-Saharan Africa,12.355,7.37,2021,5.048,0.968,0.672,0.317,0.397,0.152,0.074,1/1/21
Senegal,SEN,Africa,Sub-Saharan Africa,-14.452,14.497,2021,5.046,0.933,0.53,0.447,0.494,0.143,0.081,1/1/21
Niger*,NER,Africa,Sub-Saharan Africa,8.082,17.608,2021,5.003,0.57,0.56,0.326,0.571,0.165,0.145,1/1/21
Georgia,GEO,Asia,Europe & Central Asia,83.113,32.961,2021,4.973,1.467,0.612,0.595,0.508,0,0.208,1/1/21
Gabon,GAB,Africa,Sub-Saharan Africa,11.609,-0.804,2021,4.958,1.459,0.738,0.396,0.343,0.032,0.099,1/1/21
Iraq,IRQ,Asia,Middle East & North Africa,43.679,33.223,2021,4.941,1.289,0.682,0.554,0.328,0.147,0.046,1/1/21
Venezuela,VEN,South America,America,-66.59,6.424,2021,4.925,,0.968,0.578,0.283,0.225,0.082,1/1/21
Guinea,GIN,Africa,Sub-Saharan Africa,-9.697,9.946,2021,4.891,0.848,0.566,0.275,0.334,0.214,0.116,1/1/21
Iran,IRN,Asia,Middle East & North Africa,53.688,32.428,2021,4.888,1.41,0.741,0.642,0.281,0.241,0.146,1/1/21
Ghana,GHA,Africa,Sub-Saharan Africa,-1.023,7.947,2021,4.872,1.112,0.595,0.409,0.5,0.23,0.056,1/1/21
Turkey,TUR,Asia,Europe & Central Asia,35.243,38.964,2021,4.744,1.707,0.865,0.702,0.209,0.087,0.115,1/1/21
Burkina Faso,BFA,Africa,Sub-Saharan Africa,-1.562,12.238,2021,4.67,0.779,0.565,0.32,0.382,0.186,0.126,1/1/21
Cambodia,KHM,Asia,East Asia & Pacific,104.991,12.566,2021,4.64,1.019,0.732,0.505,0.74,0.166,0.068,1/1/21
Benin,BEN,Africa,Sub-Saharan Africa,2.316,9.308,2021,4.623,0.932,0.064,0.335,0.479,0.127,0.23,1/1/21
Comoros*,COM,Africa,Sub-Saharan Africa,43.872,-11.875,2021,4.609,0.899,0.476,0.424,0.185,0.195,0.125,1/1/21
Uganda,UGA,Africa,Sub-Saharan Africa,32.29,1.373,2021,4.603,0.777,0.875,0.418,0.402,0.222,0.066,1/1/21
Nigeria,NGA,Africa,Sub-Saharan Africa,8.675,9.082,2021,4.552,1.079,0.732,0.3,0.444,0.175,0.038,1/1/21
Kenya,KEN,Africa,Sub-Saharan Africa,37.906,-0.024,2021,4.543,1.032,0.605,0.401,0.44,0.322,0.082,1/1/21
Tunisia,TUN,Africa,Middle East & North Africa,9.537,33.887,2021,4.516,1.35,0.596,0.656,0.316,0.029,0.029,1/1/21
Pakistan,PAK,Asia,South Asia,69.345,30.375,2021,4.516,1.049,0.413,0.374,0.448,0.181,0.112,1/1/21
Palestinian Territories,PSE,Asia,Middle East & North Africa,17.267,42.094,2021,4.483,1.148,0.957,0.521,0.336,0.073,0.079,1/1/21
Mali,MLI,Africa,Sub-Saharan Africa,-3.996,17.571,2021,4.479,0.792,0.483,0.311,0.35,0.128,0.042,1/1/21
Namibia,NAM,Africa,Sub-Saharan Africa,18.49,-22.958,2021,4.459,1.292,0.877,0.354,0.384,0.067,0.071,1/1/21
Eswatini,SWZ,Africa,Sub-Saharan Africa,31.466,-26.523,2021,4.396,1.274,0.786,0.197,0.259,0.038,0.154,1/1/21
Myanmar,MMR,Asia,East Asia & Pacific,95.956,21.914,2021,4.394,1.038,0.829,0.491,0.513,0.452,0.194,1/1/21
Sri Lanka,LKA,Asia,South Asia,80.772,7.873,2021,4.362,1.415,0.934,0.66,0.529,0.15,0.079,1/1/21
Madagascar*,MDG,Africa,Sub-Saharan Africa,46.869,-18.767,2021,4.339,0.67,0.645,0.378,0.202,0.143,0.154,1/1/21
Egypt,EGY,Africa,Middle East & North Africa,30.802,26.821,2021,4.288,1.388,0.732,0.548,0.469,0.041,0.254,1/1/21
Chad*,TCD,Africa,Sub-Saharan Africa,18.732,15.454,2021,4.251,0.662,0.506,0.225,0.18,0.182,0.077,1/1/21
Ethiopia,ETH,Africa,Sub-Saharan Africa,40.49,9.145,2021,4.241,0.788,0.809,0.457,0.472,0.205,0.136,1/1/21
Yemen*,YEM,Asia,Middle East & North Africa,48.516,15.553,2021,4.197,0.691,1.043,0.384,0.33,0.09,0.098,1/1/21
Mauritania*,MRT,Africa,Sub-Saharan Africa,-10.941,21.008,2021,4.153,1.1,0.865,0.45,0.304,0.088,0.138,1/1/21
Jordan,JOR,Asia,Middle East & North Africa,36.238,30.585,2021,4.152,1.324,0.724,0.675,0.476,0.058,0.2,1/1/21
Togo,TGO,Africa,Sub-Saharan Africa,0.825,8.62,2021,4.112,0.771,0.322,0.36,0.292,0.174,0.132,1/1/21
India,IND,Asia,South Asia,78.963,20.594,2021,3.777,1.167,0.376,0.471,0.647,0.198,0.123,1/1/21
Zambia,ZMB,Africa,Sub-Saharan Africa,27.849,-13.134,2021,3.76,0.93,0.577,0.306,0.525,0.203,0.083,1/1/21
Malawi,MWI,Africa,Sub-Saharan Africa,34.302,-13.254,2021,3.75,0.648,0.279,0.388,0.477,0.14,0.157,1/1/21
Tanzania,TZA,Africa,Sub-Saharan Africa,34.889,-6.369,2021,3.702,0.848,0.597,0.425,0.578,0.248,0.27,1/1/21
Sierra Leone,SLE,Africa,Sub-Saharan Africa,-11.78,8.461,2021,3.574,0.686,0.416,0.273,0.387,0.202,0.055,1/1/21
Lesotho*,LSO,Africa,Sub-Saharan Africa,28.234,-29.61,2021,3.512,0.839,0.848,,0.419,0.076,0.018,1/1/21
Botswana*,BWA,Africa,Sub-Saharan Africa,24.685,-22.328,2021,3.471,1.503,0.815,0.28,0.571,0.012,0.102,1/1/21
Rwanda*,RWA,Africa,Sub-Saharan Africa,29.874,-1.94,2021,3.268,0.785,0.133,0.462,0.621,0.187,0.544,1/1/21
Zimbabwe,ZWE,Africa,Sub-Saharan Africa,29.155,-19.015,2021,2.995,0.947,0.69,0.27,0.329,0.106,0.105,1/1/21
Lebanon,LBN,Asia,Middle East & North Africa,35.862,33.855,2021,2.955,1.392,0.498,0.631,0.103,0.082,0.034,1/1/21
Afghanistan,AFG,Asia,South Asia,67.71,33.939,2021,2.404,0.758,,0.289,,0.089,0.005,1/1/21
Finland,FIN,Europe,Europe & Central Asia,25.748,61.924,2020,7.842,1.446,1.106,0.741,0.691,0.124,0.481,1/1/20
Denmark,DNK,Europe,Europe & Central Asia,9.502,56.264,2020,7.62,1.502,1.108,0.763,0.686,0.208,0.485,1/1/20
Switzerland,CHE,Europe,Europe & Central Asia,8.228,46.818,2020,7.571,1.566,1.079,0.816,0.653,0.204,0.413,1/1/20
Iceland,ISL,Europe,Europe & Central Asia,-19.021,64.963,2020,7.554,1.482,1.172,0.772,0.698,0.293,0.17,1/1/20
Netherlands,NLD,Europe,Europe & Central Asia,5.291,52.133,2020,7.464,1.501,1.079,0.753,0.647,0.302,0.384,1/1/20
Norway,NOR,Europe,Europe & Central Asia,8.469,60.472,2020,7.392,1.543,1.108,0.782,0.703,0.249,0.427,1/1/20
Sweden,SWE,Europe,Europe & Central Asia,18.644,60.128,2020,7.363,1.478,1.062,0.763,0.685,0.244,0.448,1/1/20
Luxembourg,LUX,Europe,Europe & Central Asia,6.13,49.815,2020,7.324,1.751,1.003,0.76,0.639,0.166,0.353,1/1/20
New Zealand,NZL,Oceania,East Asia & Pacific,174.886,-40.901,2020,7.277,1.4,1.094,0.785,0.665,0.276,0.445,1/1/20
Austria,AUT,Europe,Europe & Central Asia,14.55,47.516,2020,7.268,1.492,1.062,0.782,0.64,0.215,0.292,1/1/20
Australia,AUS,Oceania,East Asia & Pacific,133.775,-25.274,2020,7.183,1.453,1.076,0.801,0.647,0.291,0.317,1/1/20
Israel,ISR,Asia,Middle East & North Africa,34.852,31.046,2020,7.157,1.376,1.074,0.788,0.509,0.208,0.119,1/1/20
Germany,DEU,Europe,Europe & Central Asia,10.452,51.166,2020,7.155,1.48,0.993,0.757,0.6,0.195,0.306,1/1/20
Canada,CAN,North America,America,-106.347,56.13,2020,7.103,1.447,1.044,0.798,0.648,0.246,0.335,1/1/20
Ireland,IRL,Europe,Europe & Central Asia,-8.244,53.413,2020,7.085,1.644,1.092,0.753,0.606,0.238,0.367,1/1/20
Costa Rica,CRI,North America,America,-83.753,9.749,2020,7.069,1.134,0.966,0.722,0.673,0.105,0.083,1/1/20
United Kingdom,GBR,Europe,Europe & Central Asia,-1.436,52.378,2020,7.064,1.423,1.062,0.757,0.58,0.34,0.306,1/1/20
Czech Republic,CZE,Europe,Europe & Central Asia,15.473,49.817,2020,6.965,1.37,1.09,0.703,0.58,0.052,0.046,1/1/20
United States,USA,North America,America,-95.713,37.09,2020,6.951,1.533,1.03,0.621,0.554,0.252,0.154,1/1/20
Belgium,BEL,Europe,Europe & Central Asia,4.47,50.504,2020,6.834,1.463,0.998,0.747,0.489,0.088,0.187,1/1/20
France,FRA,Europe,Europe & Central Asia,2.214,46.228,2020,6.69,1.421,1.081,0.804,0.536,0.092,0.235,1/1/20
Bahrain,BHR,Asia,Middle East & North Africa,50.638,25.93,2020,6.647,1.409,0.899,0.662,0.661,0.246,0.139,1/1/20
Malta,MLT,Europe,Europe & Central Asia,14.375,35.937,2020,6.602,1.411,1.055,0.747,0.664,0.275,0.183,1/1/20
Taiwan Province of China,TWN,Asia,East Asia & Pacific,120.961,23.698,2020,6.584,1.48,0.982,0.665,0.49,0.142,0.139,1/1/20
United Arab Emirates,ARE,Asia,Middle East & North Africa,53.848,23.424,2020,6.561,1.555,0.86,0.594,0.67,0.236,0.223,1/1/20
Saudi Arabia,SAU,Asia,Middle East & North Africa,45.079,23.886,2020,6.494,1.435,0.964,0.571,0.603,0.09,0.163,1/1/20
Spain,ESP,Europe,Europe & Central Asia,-3.749,40.464,2020,6.491,1.375,1.057,0.826,0.462,0.135,0.124,1/1/20
Italy,ITA,Europe,Europe & Central Asia,12.567,41.872,2020,6.483,1.393,0.94,0.798,0.379,0.133,0.047,1/1/20
Slovenia,SVN,Europe,Europe & Central Asia,14.995,46.151,2020,6.461,1.36,1.093,0.722,0.69,0.122,0.085,1/1/20
Guatemala,GTM,North America,America,-90.231,15.783,2020,6.435,0.845,0.79,0.519,0.638,0.163,0.105,1/1/20
Uruguay,URY,South America,America,-55.766,-32.523,2020,6.431,1.164,1.042,0.649,0.625,0.128,0.223,1/1/20
Singapore,SGP,Asia,East Asia & Pacific,103.82,1.352,2020,6.377,1.695,1.019,0.897,0.664,0.176,0.547,1/1/20
Kosovo,XKK,Europe,Europe & Central Asia,21.167,42.24,2020,6.372,0.937,0.807,0.483,0.593,0.356,0.014,1/1/20
Slovakia,SVK,Europe,Europe & Central Asia,19.699,48.669,2020,6.331,1.304,1.066,0.653,0.468,0.107,0.018,1/1/20
Brazil,BRA,South America,America,-51.925,-14.235,2020,6.33,1.028,0.944,0.571,0.514,0.142,0.117,1/1/20
Mexico,MEX,North America,America,-102.553,23.635,2020,6.317,1.126,0.83,0.634,0.585,0.092,0.089,1/1/20
Jamaica,JAM,North America,America,-77.298,18.11,2020,6.309,0.891,0.932,0.599,0.618,0.099,0.035,1/1/20
Lithuania,LTU,Europe,Europe & Central Asia,23.881,55.169,2020,6.255,1.35,1.065,0.612,0.476,0.056,0.073,1/1/20
Cyprus,CYP,Europe,Europe & Central Asia,33.43,35.126,2020,6.223,1.377,0.765,0.801,0.464,0.178,0.061,1/1/20
Estonia,EST,Europe,Europe & Central Asia,25.014,58.595,2020,6.189,1.344,1.079,0.64,0.641,0.119,0.263,1/1/20
Panama,PAN,North America,America,-80.782,8.538,2020,6.18,1.298,0.976,0.667,0.596,0.079,0.053,1/1/20
Uzbekistan,UZB,Asia,Europe & Central Asia,64.585,41.377,2020,6.179,0.769,1.027,0.528,0.716,0.391,0.271,1/1/20
Chile,CHL,South America,America,-71.543,-35.675,2020,6.172,1.2,0.946,0.678,0.438,0.159,0.07,1/1/20
Poland,POL,Europe,Europe & Central Asia,19.145,51.919,2020,6.166,1.309,0.982,0.668,0.558,0.08,0.13,1/1/20
Kazakhstan,KAZ,Asia,Europe & Central Asia,66.924,48.02,2020,6.152,1.23,1.103,0.527,0.573,0.143,0.132,1/1/20
Romania,ROU,Europe,Europe & Central Asia,24.967,45.943,2020,6.14,1.275,0.832,0.595,0.564,0.045,0.001,1/1/20
Kuwait,KWT,Asia,Middle East & North Africa,47.482,29.312,2020,6.106,1.461,0.857,0.58,0.591,0.12,0.13,1/1/20
Serbia,SRB,Europe,Europe & Central Asia,21.006,44.017,2020,6.078,1.101,0.924,0.634,0.482,0.189,0.066,1/1/20
El Salvador,SLV,North America,America,-88.897,13.794,2020,6.061,0.845,0.675,0.565,0.615,0.116,0.16,1/1/20
Mauritius,MUS,Africa,Sub-Saharan Africa,57.552,-20.348,2020,6.049,1.178,0.996,0.574,0.59,0.153,0.096,1/1/20
Latvia,LVA,Europe,Europe & Central Asia,24.603,56.88,2020,6.032,1.285,1.047,0.587,0.405,0.082,0.089,1/1/20
Colombia,COL,South America,America,-74.297,4.571,2020,6.012,1.021,0.866,0.615,0.554,0.1,0.063,1/1/20
Hungary,HUN,Europe,Europe & Central Asia,19.503,47.162,2020,5.992,1.301,1.083,0.615,0.454,0.067,0.04,1/1/20
Thailand,THA,Asia,East Asia & Pacific,100.993,15.87,2020,5.985,1.107,0.957,0.596,0.611,0.375,0.028,1/1/20
Nicaragua,NIC,North America,America,-85.207,12.865,2020,5.972,0.693,0.904,0.604,0.553,0.201,0.176,1/1/20
Japan,JPN,Asia,East Asia & Pacific,138.253,36.205,2020,5.94,1.389,0.949,0.838,0.504,0.02,0.192,1/1/20
Argentina,ARG,South America,America,-63.617,-38.416,2020,5.929,1.162,0.98,0.646,0.544,0.069,0.067,1/1/20
Portugal,PRT,Europe,Europe & Central Asia,-8.224,39.4,2020,5.929,1.323,0.939,0.76,0.621,0.029,0.033,1/1/20
Honduras,HND,North America,America,-86.242,15.2,2020,5.919,0.703,0.787,0.593,0.578,0.241,0.083,1/1/20
Croatia,HRV,Europe,Europe & Central Asia,15.2,45.1,2020,5.882,1.251,1.039,0.703,0.453,0.111,,1/1/20
Philippines,PHL,Asia,East Asia & Pacific,121.774,12.88,2020,5.88,0.853,0.828,0.426,0.651,0.125,0.126,1/1/20
South Korea,KOR,Asia,East Asia & Pacific,126.967,37.55,2020,5.845,1.403,0.758,0.801,0.353,0.134,0.135,1/1/20
Peru,PER,South America,America,-75.015,-9.19,2020,5.84,0.986,0.833,0.623,0.536,0.087,0.031,1/1/20
Bosnia and Herzegovina,BIH,Europe,Europe & Central Asia,17.679,43.916,2020,5.813,1.032,0.919,0.618,0.395,0.261,0.005,1/1/20
Moldova,MDA,Europe,Europe & Central Asia,28.37,47.412,2020,5.766,0.985,0.888,0.542,0.536,0.137,0.013,1/1/20
Ecuador,ECU,South America,America,-78.183,-1.831,2020,5.764,0.935,0.806,0.64,0.56,0.107,0.062,1/1/20
Kyrgyzstan,KGZ,Asia,Europe & Central Asia,74.766,41.204,2020,5.744,0.665,0.971,0.501,0.673,0.266,0.02,1/1/20
Greece,GRC,Europe,Europe & Central Asia,21.824,39.074,2020,5.723,1.273,0.811,0.76,0.243,0,0.074,1/1/20
Bolivia,BOL,South America,America,-63.589,-16.29,2020,5.716,0.842,0.782,0.486,0.6,0.138,0.064,1/1/20
Mongolia,MNG,Asia,East Asia & Pacific,103.847,46.862,2020,5.677,0.966,1.065,0.442,0.397,0.263,0.053,1/1/20
Paraguay,PRY,South America,America,-58.444,-23.443,2020,5.653,0.983,0.97,0.549,0.602,0.206,0.037,1/1/20
Montenegro,MNE,Europe,Europe & Central Asia,19.374,42.709,2020,5.581,1.155,0.891,0.637,0.397,0.166,0.081,1/1/20
Dominican Republic,DOM,North America,America,-70.163,18.736,2020,5.545,1.106,0.879,0.555,0.581,0.101,0.144,1/1/20
North Cyprus,CYP,Europe,Europe & Central Asia,33.43,35.126,2020,5.536,1.377,0.806,0.801,0.503,0.196,0.2,1/1/20
Belarus,BLR,Europe,Europe & Central Asia,27.953,53.71,2020,5.534,1.124,1.007,0.56,0.326,0.07,0.199,1/1/20
Russia,RUS,Asia,Europe & Central Asia,105.319,61.524,2020,5.477,1.241,0.992,0.511,0.409,0.115,0.06,1/1/20
Hong Kong S.A.R. of China,HKG,Asia,East Asia & Pacific,114.109,22.396,2020,5.477,1.525,0.841,0.893,0.408,0.232,0.342,1/1/20
Tajikistan,TJK,Asia,Europe & Central Asia,71.276,38.861,2020,5.466,0.508,0.895,0.498,0.548,0.152,0.247,1/1/20
Vietnam,VNM,Asia,East Asia & Pacific,108.277,14.058,2020,5.411,0.817,0.873,0.616,0.679,0.124,0.091,1/1/20
Libya,LBY,Africa,Middle East & North Africa,17,25,2020,5.41,1.044,0.821,0.435,0.474,0.131,0.174,1/1/20
Malaysia,MYS,Asia,East Asia & Pacific,101.976,4.21,2020,5.384,1.259,0.797,0.587,0.624,0.27,0.064,1/1/20
Indonesia,IDN,Asia,East Asia & Pacific,113.921,-0.789,2020,5.345,0.954,0.786,0.433,0.598,0.541,0.046,1/1/20
Congo (Brazzaville),COG,Africa,Sub-Saharan Africa,15.828,-0.228,2020,5.342,0.518,0.392,0.307,0.381,0.144,0.124,1/1/20
China,CHN,Asia,East Asia & Pacific,104.195,35.862,2020,5.339,1.061,0.785,0.665,0.636,0.093,0.117,1/1/20
Ivory Coast,CIV,Africa,Sub-Saharan Africa,-5.547,7.54,2020,5.306,0.669,0.409,0.052,0.438,0.177,0.092,1/1/20
Armenia,ARM,Asia,Europe & Central Asia,45.038,40.069,2020,5.283,0.996,0.758,0.585,0.54,0.079,0.198,1/1/20
Nepal,NPL,Asia,South Asia,84.124,28.395,2020,5.269,0.519,0.702,0.496,0.488,0.287,0.135,1/1/20
Bulgaria,BGR,Europe,Europe & Central Asia,25.486,42.734,2020,5.266,1.181,1.055,0.583,0.494,0.125,0.005,1/1/20
Maldives,MDV,Asia,South Asia,73.221,3.203,2020,5.198,1.115,1.015,0.697,0.575,0.204,0.073,1/1/20
Azerbaijan,AZE,Asia,Europe & Central Asia,47.577,40.143,2020,5.171,1.025,0.841,0.541,0.526,0.043,0.276,1/1/20
Cameroon,CMR,Africa,Sub-Saharan Africa,12.355,7.37,2020,5.142,0.543,0.556,0.159,0.425,0.205,0.058,1/1/20
Senegal,SEN,Africa,Sub-Saharan Africa,-14.452,14.497,2020,5.132,0.518,0.558,0.357,0.381,0.158,0.088,1/1/20
Albania,ALB,Europe,Europe & Central Asia,20.168,41.153,2020,5.117,1.008,0.529,0.646,0.491,0.168,0.024,1/1/20
North Macedonia,MKD,Europe,Europe & Central Asia,21.745,41.609,2020,5.101,1.068,0.772,0.535,0.45,0.212,0.022,1/1/20
Ghana,GHA,Africa,Sub-Saharan Africa,-1.023,7.947,2020,5.088,0.68,0.595,0.287,0.517,0.268,0.058,1/1/20
Niger,NER,Africa,Sub-Saharan Africa,8.082,17.608,2020,5.074,0.162,0.402,0.167,0.516,0.2,0.157,1/1/20
Turkmenistan,TKM,Asia,Europe & Central Asia,59.556,38.97,2020,5.066,1.046,1.172,0.439,0.602,0.366,0.033,1/1/20
Gambia,GMB,Africa,Sub-Saharan Africa,-15.31,13.443,2020,5.051,0.367,0.511,0.21,0.384,0.465,0.123,1/1/20
Benin,BEN,Africa,Sub-Saharan Africa,2.316,9.308,2020,5.045,0.507,0.058,0.196,0.457,0.166,0.178,1/1/20
Laos,LAO,Asia,East Asia & Pacific,102.495,19.856,2020,5.03,0.808,0.598,0.33,0.643,0.268,0.179,1/1/20
Bangladesh,BGD,Asia,South Asia,90.356,23.685,2020,5.025,0.635,0.52,0.514,0.603,0.161,0.164,1/1/20
Guinea,GIN,Africa,Sub-Saharan Africa,-9.697,9.946,2020,4.984,0.42,0.399,0.206,0.384,0.25,0.111,1/1/20
South Africa,ZAF,Africa,Sub-Saharan Africa,22.938,-30.559,2020,4.956,0.967,0.895,0.265,0.447,0.144,0.051,1/1/20
Turkey,TUR,Asia,Europe & Central Asia,35.243,38.964,2020,4.948,1.26,0.809,0.59,0.236,0.097,0.104,1/1/20
Pakistan,PAK,Asia,South Asia,69.345,30.375,2020,4.934,0.637,0.423,0.322,0.418,0.252,0.097,1/1/20
Morocco,MAR,Africa,Middle East & North Africa,-7.093,31.792,2020,4.918,0.792,0.219,0.558,0.477,0.034,0.088,1/1/20
Venezuela,VEN,South America,America,-66.59,6.424,2020,4.892,0.852,0.897,0.574,0.284,0.078,0.072,1/1/20
Georgia,GEO,Asia,Europe & Central Asia,83.113,32.961,2020,4.891,1.03,0.47,0.498,0.488,0.032,0.181,1/1/20
Algeria,DZA,Africa,Middle East & North Africa,1.66,28.034,2020,4.887,0.946,0.765,0.552,0.119,0.144,0.12,1/1/20
Ukraine,UKR,Europe,Europe & Central Asia,31.166,48.379,2020,4.875,0.979,0.958,0.517,0.417,0.181,0.01,1/1/20
Iraq,IRQ,Asia,Middle East & North Africa,43.679,33.223,2020,4.854,0.91,0.638,0.381,0.302,0.153,0.041,1/1/20
Gabon,GAB,Africa,Sub-Saharan Africa,11.609,-0.804,2020,4.852,1.037,0.707,0.362,0.424,0.058,0.064,1/1/20
Burkina Faso,BFA,Africa,Sub-Saharan Africa,-1.562,12.238,2020,4.834,0.364,0.472,0.179,0.381,0.182,0.122,1/1/20
Cambodia,KHM,Asia,East Asia & Pacific,104.991,12.566,2020,4.83,0.603,0.68,0.426,0.702,0.21,0.061,1/1/20
Mozambique,MOZ,Africa,Sub-Saharan Africa,35.53,-18.666,2020,4.794,0.183,0.634,0.196,0.608,0.228,0.163,1/1/20
Nigeria,NGA,Africa,Sub-Saharan Africa,8.675,9.082,2020,4.759,0.663,0.625,0.051,0.433,0.212,0.039,1/1/20
Mali,MLI,Africa,Sub-Saharan Africa,-3.996,17.571,2020,4.723,0.387,0.59,0.11,0.384,0.164,0.072,1/1/20
Iran,IRN,Asia,Middle East & North Africa,53.688,32.428,2020,4.721,1.03,0.557,0.561,0.275,0.33,0.144,1/1/20
Uganda,UGA,Africa,Sub-Saharan Africa,32.29,1.373,2020,4.636,0.364,0.718,0.24,0.398,0.267,0.054,1/1/20
Liberia,LBR,Africa,Sub-Saharan Africa,-9.429,6.428,2020,4.625,0.228,0.58,0.253,0.43,0.221,0.057,1/1/20
Kenya,KEN,Africa,Sub-Saharan Africa,37.906,-0.024,2020,4.607,0.603,0.508,0.385,0.483,0.375,0.073,1/1/20
Tunisia,TUN,Africa,Middle East & North Africa,9.537,33.887,2020,4.596,0.919,0.515,0.59,0.334,0.057,0.044,1/1/20
Lebanon,LBN,Asia,Middle East & North Africa,35.862,33.855,2020,4.584,1.045,0.868,0.595,0.175,0.14,0.026,1/1/20
Namibia,NAM,Africa,Sub-Saharan Africa,18.49,-22.958,2020,4.574,0.882,0.801,0.262,0.411,0.091,0.059,1/1/20
Palestinian Territories,PSE,Asia,Middle East & North Africa,17.267,42.094,2020,4.517,0.646,0.819,0.434,0.33,0.082,0.075,1/1/20
Myanmar,MMR,Asia,East Asia & Pacific,95.956,21.914,2020,4.426,0.666,0.713,0.341,0.601,0.52,0.178,1/1/20
Jordan,JOR,Asia,Middle East & North Africa,36.238,30.585,2020,4.395,0.89,0.685,0.583,0.455,0.079,0.15,1/1/20
Chad,TCD,Africa,Sub-Saharan Africa,18.732,15.454,2020,4.355,0.255,0.353,,0.24,0.215,0.084,1/1/20
Sri Lanka,LKA,Asia,South Asia,80.772,7.873,2020,4.325,0.99,0.82,0.593,0.559,0.239,0.049,1/1/20
Eswatini,SWZ,Africa,Sub-Saharan Africa,31.466,-26.523,2020,4.308,0.849,0.693,0.074,0.323,0.067,0.147,1/1/20
Comoros,COM,Africa,Sub-Saharan Africa,43.872,-11.875,2020,4.289,0.488,0.367,0.279,0.202,0.241,0.101,1/1/20
Egypt,EGY,Africa,Middle East & North Africa,30.802,26.821,2020,4.283,0.954,0.647,0.426,0.446,0.069,0.092,1/1/20
Ethiopia,ETH,Africa,Sub-Saharan Africa,40.49,9.145,2020,4.275,0.37,0.679,0.331,0.451,0.241,0.114,1/1/20
Mauritania,MRT,Africa,Sub-Saharan Africa,-10.941,21.008,2020,4.227,0.666,0.749,0.273,0.218,0.119,0.133,1/1/20
Madagascar,MDG,Africa,Sub-Saharan Africa,46.869,-18.767,2020,4.208,0.266,0.503,0.341,0.207,0.185,0.087,1/1/20
Togo,TGO,Africa,Sub-Saharan Africa,0.825,8.62,2020,4.107,0.254,0.239,0.203,0.289,0.209,0.107,1/1/20
Zambia,ZMB,Africa,Sub-Saharan Africa,27.849,-13.134,2020,4.073,0.528,0.552,0.231,0.487,0.227,0.074,1/1/20
Sierra Leone,SLE,Africa,Sub-Saharan Africa,-11.78,8.461,2020,3.849,0.279,0.377,0.1,0.408,0.243,0.047,1/1/20
India,IND,Asia,South Asia,78.963,20.594,2020,3.819,0.741,0.316,0.383,0.622,0.246,0.106,1/1/20
Burundi,BDI,Africa,Sub-Saharan Africa,29.919,-3.373,2020,3.775,,0.062,0.155,0.298,0.172,0.212,1/1/20
Yemen,YEM,Asia,Middle East & North Africa,48.516,15.553,2020,3.658,0.329,0.831,0.272,0.268,0.092,0.089,1/1/20
Tanzania,TZA,Africa,Sub-Saharan Africa,34.889,-6.369,2020,3.623,0.433,0.54,0.3,0.549,0.307,0.231,1/1/20
Haiti,HTI,North America,America,-72.285,18.971,2020,3.615,0.294,0.173,0.227,0.257,0.463,0.139,1/1/20
Malawi,MWI,Africa,Sub-Saharan Africa,34.302,-13.254,2020,3.6,0.113,0.168,0.298,0.484,0.213,0.134,1/1/20
Lesotho,LSO,Africa,Sub-Saharan Africa,28.234,-29.61,2020,3.512,0.451,0.731,0.007,0.405,0.103,0.015,1/1/20
Botswana,BWA,Africa,Sub-Saharan Africa,24.685,-22.328,2020,3.467,1.099,0.724,0.34,0.539,0.027,0.088,1/1/20
Rwanda,RWA,Africa,Sub-Saharan Africa,29.874,-1.94,2020,3.415,0.364,0.202,0.407,0.627,0.227,0.493,1/1/20
Zimbabwe,ZWE,Africa,Sub-Saharan Africa,29.155,-19.015,2020,3.145,0.457,0.649,0.243,0.359,0.157,0.075,1/1/20
Afghanistan,AFG,Asia,South Asia,67.71,33.939,2020,2.523,0.37,,0.126,,0.122,0.01,1/1/20
Finland,FIN,Europe,Europe & Central Asia,25.748,61.924,2019,7.809,1.285,1.5,0.961,0.662,0.16,0.478,1/1/19
Denmark,DNK,Europe,Europe & Central Asia,9.502,56.264,2019,7.646,1.327,1.503,0.979,0.665,0.243,0.495,1/1/19
Switzerland,CHE,Europe,Europe & Central Asia,8.228,46.818,2019,7.56,1.391,1.472,1.041,0.629,0.269,0.408,1/1/19
Iceland,ISL,Europe,Europe & Central Asia,-19.021,64.963,2019,7.504,1.327,1.548,1.001,0.662,0.362,0.145,1/1/19
Norway,NOR,Europe,Europe & Central Asia,8.469,60.472,2019,7.488,1.424,1.495,1.008,0.67,0.288,0.434,1/1/19
Netherlands,NLD,Europe,Europe & Central Asia,5.291,52.133,2019,7.449,1.339,1.464,0.976,0.614,0.336,0.369,1/1/19
Sweden,SWE,Europe,Europe & Central Asia,18.644,60.128,2019,7.353,1.322,1.433,0.986,0.65,0.273,0.442,1/1/19
New Zealand,NZL,Oceania,East Asia & Pacific,174.886,-40.901,2019,7.3,1.242,1.487,1.008,0.647,0.326,0.461,1/1/19
Austria,AUT,Europe,Europe & Central Asia,14.55,47.516,2019,7.294,1.317,1.437,1.001,0.603,0.256,0.281,1/1/19
Luxembourg,LUX,Europe,Europe & Central Asia,6.13,49.815,2019,7.238,1.537,1.388,0.986,0.61,0.196,0.367,1/1/19
Canada,CAN,North America,America,-106.347,56.13,2019,7.232,1.302,1.435,1.023,0.644,0.282,0.352,1/1/19
Australia,AUS,Oceania,East Asia & Pacific,133.775,-25.274,2019,7.223,1.31,1.477,1.023,0.622,0.325,0.336,1/1/19
United Kingdom,GBR,Europe,Europe & Central Asia,-1.436,52.378,2019,7.165,1.273,1.458,0.976,0.525,0.373,0.323,1/1/19
Israel,ISR,Asia,Middle East & North Africa,34.852,31.046,2019,7.129,1.216,1.403,1.008,0.421,0.267,0.1,1/1/19
Costa Rica,CRI,North America,America,-83.753,9.749,2019,7.121,0.981,1.375,0.94,0.645,0.131,0.096,1/1/19
Ireland,IRL,Europe,Europe & Central Asia,-8.244,53.413,2019,7.094,1.447,1.471,0.976,0.588,0.295,0.373,1/1/19
Germany,DEU,Europe,Europe & Central Asia,10.452,51.166,2019,7.076,1.314,1.369,0.972,0.564,0.252,0.309,1/1/19
United States,USA,North America,America,-95.713,37.09,2019,6.94,1.374,1.405,0.832,0.535,0.298,0.152,1/1/19
Czech Republic,CZE,Europe,Europe & Central Asia,15.473,49.817,2019,6.911,1.212,1.405,0.895,0.506,0.046,0.05,1/1/19
Belgium,BEL,Europe,Europe & Central Asia,4.47,50.504,2019,6.864,1.296,1.399,0.965,0.5,0.147,0.209,1/1/19
United Arab Emirates,ARE,Asia,Middle East & North Africa,53.848,23.424,2019,6.791,1.431,1.251,0.788,0.653,0.281,0.22,1/1/19
Malta,MLT,Europe,Europe & Central Asia,14.375,35.937,2019,6.773,1.253,1.443,0.972,0.633,0.341,0.179,1/1/19
France,FRA,Europe,Europe & Central Asia,2.214,46.228,2019,6.664,1.268,1.459,1.03,0.514,0.113,0.227,1/1/19
Mexico,MEX,North America,America,-102.553,23.635,2019,6.465,1.024,1.226,0.832,0.554,0.083,0.083,1/1/19
Taiwan Province of China,TWN,Asia,East Asia & Pacific,120.961,23.698,2019,6.455,1.327,1.358,0.878,0.449,0.151,0.132,1/1/19
Uruguay,URY,South America,America,-55.766,-32.523,2019,6.44,1.071,1.425,0.857,0.594,0.132,0.193,1/1/19
Saudi Arabia,SAU,Asia,Middle East & North Africa,45.079,23.886,2019,6.406,1.334,1.31,0.76,0.548,0.087,0.163,1/1/19
Spain,ESP,Europe,Europe & Central Asia,-3.749,40.464,2019,6.401,1.231,1.421,1.051,0.426,0.165,0.11,1/1/19
Guatemala,GTM,North America,America,-90.231,15.783,2019,6.399,0.754,1.174,0.706,0.613,0.171,0.098,1/1/19
Italy,ITA,Europe,Europe & Central Asia,12.567,41.872,2019,6.387,1.236,1.347,1.023,0.321,0.17,0.04,1/1/19
Singapore,SGP,Asia,East Asia & Pacific,103.82,1.352,2019,6.377,1.52,1.395,1.138,0.635,0.219,0.533,1/1/19
Brazil,BRA,South America,America,-51.925,-14.235,2019,6.376,0.953,1.363,0.766,0.483,0.132,0.107,1/1/19
Slovenia,SVN,Europe,Europe & Central Asia,14.995,46.151,2019,6.363,1.209,1.465,0.933,0.647,0.146,0.077,1/1/19
El Salvador,SLV,North America,America,-88.897,13.794,2019,6.348,0.749,1.149,0.753,0.524,0.119,0.117,1/1/19
Kosovo,XKK,Europe,Europe & Central Asia,21.167,42.24,2019,6.325,0.84,1.184,0.673,0.557,0.325,0.009,1/1/19
Panama,PAN,North America,America,-80.782,8.538,2019,6.305,1.098,1.376,0.879,0.58,0.097,0.054,1/1/19
Slovakia,SVK,Europe,Europe & Central Asia,19.699,48.669,2019,6.281,1.195,1.424,0.853,0.424,0.117,0.011,1/1/19
Uzbekistan,UZB,Asia,Europe & Central Asia,64.585,41.377,2019,6.258,0.697,1.434,0.717,0.693,0.363,0.28,1/1/19
Chile,CHL,South America,America,-71.543,-35.675,2019,6.228,1.097,1.323,0.889,0.417,0.156,0.063,1/1/19
Bahrain,BHR,Asia,Middle East & North Africa,50.638,25.93,2019,6.227,1.297,1.315,0.839,0.61,0.287,0.127,1/1/19
Lithuania,LTU,Europe,Europe & Central Asia,23.881,55.169,2019,6.215,1.194,1.433,0.795,0.42,0.054,0.081,1/1/19
Trinidad and Tobago,TTO,North America,America,-61.223,10.692,2019,6.192,1.168,1.407,0.659,0.553,0.199,0.015,1/1/19
Poland,POL,Europe,Europe & Central Asia,19.145,51.919,2019,6.186,1.169,1.31,0.868,0.558,0.063,0.161,1/1/19
Colombia,COL,South America,America,-74.297,4.571,2019,6.163,0.932,1.334,0.81,0.527,0.092,0.046,1/1/19
Cyprus,CYP,Europe,Europe & Central Asia,33.43,35.126,2019,6.159,1.213,1.149,1.026,0.459,0.228,0.051,1/1/19
Nicaragua,NIC,North America,America,-85.207,12.865,2019,6.137,0.62,1.271,0.803,0.56,0.213,0.174,1/1/19
Romania,ROU,Europe,Europe & Central Asia,24.967,45.943,2019,6.124,1.12,1.194,0.792,0.535,0.068,0.001,1/1/19
Kuwait,KWT,Asia,Middle East & North Africa,47.482,29.312,2019,6.102,1.425,1.245,0.776,0.57,0.133,0.113,1/1/19
Mauritius,MUS,Africa,Sub-Saharan Africa,57.552,-20.348,2019,6.101,1.074,1.396,0.763,0.591,0.187,0.084,1/1/19
Kazakhstan,KAZ,Asia,Europe & Central Asia,66.924,48.02,2019,6.058,1.123,1.453,0.699,0.497,0.154,0.11,1/1/19
Estonia,EST,Europe,Europe & Central Asia,25.014,58.595,2019,6.022,1.192,1.453,0.843,0.577,0.125,0.202,1/1/19
Philippines,PHL,Asia,East Asia & Pacific,121.774,12.88,2019,6.006,0.775,1.245,0.602,0.622,0.129,0.13,1/1/19
Hungary,HUN,Europe,Europe & Central Asia,19.503,47.162,2019,6,1.164,1.423,0.807,0.386,0.07,0.028,1/1/19
Thailand,THA,Asia,East Asia & Pacific,100.993,15.87,2019,5.999,1.007,1.348,0.794,0.609,0.377,0.032,1/1/19
Argentina,ARG,South America,America,-63.617,-38.416,2019,5.975,1.028,1.373,0.85,0.521,0.07,0.06,1/1/19
Honduras,HND,North America,America,-86.242,15.2,2019,5.953,0.599,1.187,0.792,0.568,0.257,0.087,1/1/19
Latvia,LVA,Europe,Europe & Central Asia,24.603,56.88,2019,5.95,1.141,1.414,0.778,0.329,0.075,0.09,1/1/19
Ecuador,ECU,South America,America,-78.183,-1.831,2019,5.925,0.853,1.221,0.839,0.555,0.115,0.087,1/1/19
Portugal,PRT,Europe,Europe & Central Asia,-8.224,39.4,2019,5.911,1.169,1.34,0.979,0.59,0.053,0.028,1/1/19
Jamaica,JAM,North America,America,-77.298,18.11,2019,5.89,0.779,1.408,0.788,0.553,0.116,0.03,1/1/19
South Korea,KOR,Asia,East Asia & Pacific,126.967,37.55,2019,5.872,1.245,1.134,1.023,0.259,0.17,0.095,1/1/19
Japan,JPN,Asia,East Asia & Pacific,138.253,36.205,2019,5.871,1.267,1.332,1.073,0.495,0.036,0.181,1/1/19
Peru,PER,South America,America,-75.015,-9.19,2019,5.797,0.919,1.208,0.824,0.513,0.092,0.027,1/1/19
Serbia,SRB,Europe,Europe & Central Asia,21.006,44.017,2019,5.778,0.988,1.327,0.828,0.395,0.15,0.059,1/1/19
Bolivia,BOL,South America,America,-63.589,-16.29,2019,5.747,0.731,1.142,0.662,0.574,0.138,0.073,1/1/19
Pakistan,PAK,Asia,South Asia,69.345,30.375,2019,5.693,0.617,0.873,0.47,0.405,0.229,0.123,1/1/19
Paraguay,PRY,South America,America,-58.444,-23.443,2019,5.692,0.898,1.368,0.736,0.587,0.204,0.065,1/1/19
Dominican Republic,DOM,North America,America,-70.163,18.736,2019,5.689,0.983,1.329,0.742,0.563,0.112,0.116,1/1/19
Bosnia and Herzegovina,BIH,Europe,Europe & Central Asia,17.679,43.916,2019,5.674,0.918,1.204,0.814,0.305,0.264,0.001,1/1/19
Moldova,MDA,Europe,Europe & Central Asia,28.37,47.412,2019,5.608,0.708,1.237,0.713,0.39,0.174,0.014,1/1/19
Tajikistan,TJK,Asia,Europe & Central Asia,71.276,38.861,2019,5.556,0.475,1.218,0.681,0.521,0.182,0.222,1/1/19
Montenegro,MNE,Europe,Europe & Central Asia,19.374,42.709,2019,5.546,1.01,1.266,0.839,0.303,0.149,0.098,1/1/19
Russia,RUS,Asia,Europe & Central Asia,105.319,61.524,2019,5.546,1.127,1.379,0.68,0.399,0.099,0.046,1/1/19
Kyrgyzstan,KGZ,Asia,Europe & Central Asia,74.766,41.204,2019,5.542,0.513,1.341,0.681,0.615,0.301,0.03,1/1/19
Belarus,BLR,Europe,Europe & Central Asia,27.953,53.71,2019,5.54,1.019,1.387,0.753,0.291,0.09,0.194,1/1/19
North Cyprus,CYP,Europe,Europe & Central Asia,33.43,35.126,2019,5.536,1.213,1.183,1.026,0.478,0.199,0.2,1/1/19
Greece,GRC,Europe,Europe & Central Asia,21.824,39.074,2019,5.515,1.128,1.169,0.979,0.174,0,0.049,1/1/19
Hong Kong S.A.R. of China,HKG,Asia,East Asia & Pacific,114.109,22.396,2019,5.51,1.377,1.244,1.137,0.459,0.288,0.332,1/1/19
Croatia,HRV,Europe,Europe & Central Asia,15.2,45.1,2019,5.505,1.109,1.311,0.901,0.381,0.114,0.012,1/1/19
Libya,LBY,Africa,Middle East & North Africa,17,25,2019,5.489,1.022,1.196,0.616,0.451,0.143,0.172,1/1/19
Mongolia,MNG,Asia,East Asia & Pacific,103.847,46.862,2019,5.456,0.905,1.459,0.616,0.356,0.264,0.047,1/1/19
Malaysia,MYS,Asia,East Asia & Pacific,101.976,4.21,2019,5.384,1.168,1.174,0.789,0.597,0.275,0.062,1/1/19
Vietnam,VNM,Asia,East Asia & Pacific,108.277,14.058,2019,5.353,0.718,1.253,0.819,0.651,0.136,0.09,1/1/19
Indonesia,IDN,Asia,East Asia & Pacific,113.921,-0.789,2019,5.286,0.892,1.155,0.61,0.568,0.543,0.038,1/1/19
Ivory Coast,CIV,Africa,Sub-Saharan Africa,-5.547,7.54,2019,5.233,0.537,0.8,0.155,0.397,0.17,0.093,1/1/19
Benin,BEN,Africa,Sub-Saharan Africa,2.316,9.308,2019,5.216,0.366,0.352,0.328,0.406,0.197,0.126,1/1/19
Maldives,MDV,Asia,South Asia,73.221,3.203,2019,5.198,0.938,1.402,0.914,0.548,0.224,0.072,1/1/19
Congo (Brazzaville),COG,Africa,Sub-Saharan Africa,15.828,-0.228,2019,5.194,0.634,0.758,0.458,0.387,0.117,0.119,1/1/19
Azerbaijan,AZE,Asia,Europe & Central Asia,47.577,40.143,2019,5.165,0.99,1.181,0.731,0.468,0.04,0.247,1/1/19
Macedonia,MKD,Europe,Europe & Central Asia,21.745,41.609,2019,5.16,0.935,1.183,0.803,0.41,0.186,0.025,1/1/19
Ghana,GHA,Africa,Sub-Saharan Africa,-1.023,7.947,2019,5.148,0.576,0.966,0.432,0.477,0.261,0.057,1/1/19
Nepal,NPL,Asia,South Asia,84.124,28.395,2019,5.137,0.444,1.101,0.669,0.481,0.301,0.128,1/1/19
Turkey,TUR,Asia,Europe & Central Asia,35.243,38.964,2019,5.132,1.127,1.197,0.781,0.254,0.086,0.121,1/1/19
China,CHN,Asia,East Asia & Pacific,104.195,35.862,2019,5.124,0.991,1.132,0.867,0.602,0.079,0.117,1/1/19
Turkmenistan,TKM,Asia,Europe & Central Asia,59.556,38.97,2019,5.119,1.009,1.51,0.612,0.515,0.323,0.034,1/1/19
Bulgaria,BGR,Europe,Europe & Central Asia,25.486,42.734,2019,5.102,1.047,1.461,0.778,0.418,0.104,,1/1/19
Morocco,MAR,Africa,Middle East & North Africa,-7.093,31.792,2019,5.095,0.759,0.645,0.745,0.45,0.04,0.077,1/1/19
Cameroon,CMR,Africa,Sub-Saharan Africa,12.355,7.37,2019,5.085,0.504,0.9,0.27,0.439,0.198,0.054,1/1/19
Venezuela,VEN,South America,America,-66.59,6.424,2019,5.053,0.77,1.349,0.767,0.272,0.087,0.064,1/1/19
Algeria,DZA,Africa,Middle East & North Africa,1.66,28.034,2019,5.005,0.944,1.143,0.745,0.084,0.119,0.129,1/1/19
Senegal,SEN,Africa,Sub-Saharan Africa,-14.452,14.497,2019,4.981,0.504,0.955,0.518,0.352,0.164,0.082,1/1/19
Guinea,GIN,Africa,Sub-Saharan Africa,-9.697,9.946,2019,4.949,0.39,0.751,0.334,0.372,0.249,0.112,1/1/19
Niger,NER,Africa,Sub-Saharan Africa,8.082,17.608,2019,4.91,0.108,0.704,0.299,0.435,0.208,0.138,1/1/19
Laos,LAO,Asia,East Asia & Pacific,102.495,19.856,2019,4.889,0.715,0.987,0.486,0.612,0.273,0.194,1/1/19
Albania,ALB,Europe,Europe & Central Asia,20.168,41.153,2019,4.883,0.907,0.83,0.846,0.462,0.171,0.025,1/1/19
Cambodia,KHM,Asia,East Asia & Pacific,104.991,12.566,2019,4.848,0.545,1.071,0.588,0.675,0.233,0.073,1/1/19
Bangladesh,BGD,Asia,South Asia,90.356,23.685,2019,4.833,0.556,0.869,0.695,0.604,0.177,0.177,1/1/19
Gabon,GAB,Africa,Sub-Saharan Africa,11.609,-0.804,2019,4.829,0.988,1.106,0.523,0.369,0.052,0.056,1/1/19
South Africa,ZAF,Africa,Sub-Saharan Africa,22.938,-30.559,2019,4.814,0.902,1.259,0.407,0.435,0.126,0.06,1/1/19
Iraq,IRQ,Asia,Middle East & North Africa,43.679,33.223,2019,4.785,0.982,1.011,0.529,0.284,0.153,0.073,1/1/19
Lebanon,LBN,Asia,Middle East & North Africa,35.862,33.855,2019,4.772,0.889,1.192,0.789,0.186,0.159,0.022,1/1/19
Burkina Faso,BFA,Africa,Sub-Saharan Africa,-1.562,12.238,2019,4.769,0.302,0.929,0.313,0.322,0.186,0.126,1/1/19
Gambia,GMB,Africa,Sub-Saharan Africa,-15.31,13.443,2019,4.751,0.257,0.883,0.353,0.403,0.426,0.158,1/1/19
Mali,MLI,Africa,Sub-Saharan Africa,-3.996,17.571,2019,4.729,0.352,0.973,0.235,0.378,0.17,0.062,1/1/19
Nigeria,NGA,Africa,Sub-Saharan Africa,8.675,9.082,2019,4.724,0.646,0.987,0.168,0.435,0.221,0.048,1/1/19
Armenia,ARM,Asia,Europe & Central Asia,45.038,40.069,2019,4.677,0.808,1.035,0.776,0.378,0.107,0.105,1/1/19
Georgia,GEO,Asia,Europe & Central Asia,83.113,32.961,2019,4.673,0.847,0.731,0.695,0.485,0.048,0.174,1/1/19
Iran,IRN,Asia,Middle East & North Africa,53.688,32.428,2019,4.672,1.029,0.886,0.749,0.301,0.277,0.143,1/1/19
Jordan,JOR,Asia,Middle East & North Africa,36.238,30.585,2019,4.633,0.785,1.14,0.778,0.425,0.091,0.152,1/1/19
Mozambique,MOZ,Africa,Sub-Saharan Africa,35.53,-18.666,2019,4.624,0.179,0.955,0.324,0.561,0.22,0.163,1/1/19
Kenya,KEN,Africa,Sub-Saharan Africa,37.906,-0.024,2019,4.583,0.476,0.905,0.536,0.519,0.394,0.067,1/1/19
Namibia,NAM,Africa,Sub-Saharan Africa,18.49,-22.958,2019,4.571,0.84,1.246,0.407,0.445,0.076,0.054,1/1/19
Ukraine,UKR,Europe,Europe & Central Asia,31.166,48.379,2019,4.561,0.78,1.321,0.699,0.319,0.179,0.01,1/1/19
Liberia,LBR,Africa,Sub-Saharan Africa,-9.429,6.428,2019,4.558,0.174,0.921,0.392,0.406,0.227,0.051,1/1/19
Palestinian Territories,PSE,Asia,Middle East & North Africa,17.267,42.094,2019,4.553,0.588,1.195,0.614,0.299,0.092,0.072,1/1/19
Uganda,UGA,Africa,Sub-Saharan Africa,32.29,1.373,2019,4.432,0.312,1.052,0.378,0.402,0.265,0.064,1/1/19
Chad,TCD,Africa,Sub-Saharan Africa,18.732,15.454,2019,4.423,0.302,0.739,0.109,0.229,0.211,0.086,1/1/19
Tunisia,TUN,Africa,Middle East & North Africa,9.537,33.887,2019,4.392,0.875,0.872,0.781,0.236,0.056,0.044,1/1/19
Mauritania,MRT,Africa,Sub-Saharan Africa,-10.941,21.008,2019,4.375,0.54,1.113,0.425,0.186,0.129,0.122,1/1/19
Sri Lanka,LKA,Asia,South Asia,80.772,7.873,2019,4.327,0.898,1.195,0.792,0.529,0.253,0.049,1/1/19
Congo (Kinshasa),COD,Africa,Sub-Saharan Africa,15.828,-0.228,2019,4.311,0.062,0.833,0.277,0.365,0.254,0.081,1/1/19
Eswatini,SWZ,Africa,Sub-Saharan Africa,31.466,-26.523,2019,4.308,0.828,1.065,0.216,0.3,0.067,0.147,1/1/19
Myanmar,MMR,Asia,East Asia & Pacific,95.956,21.914,2019,4.308,0.678,1.098,0.495,0.597,0.57,0.188,1/1/19
Comoros,COM,Africa,Sub-Saharan Africa,43.872,-11.875,2019,4.289,0.416,0.723,0.437,0.181,0.259,0.1,1/1/19
Togo,TGO,Africa,Sub-Saharan Africa,0.825,8.62,2019,4.187,0.268,0.548,0.343,0.304,0.201,0.115,1/1/19
Ethiopia,ETH,Africa,Sub-Saharan Africa,40.49,9.145,2019,4.186,0.315,1.001,0.484,0.413,0.228,0.117,1/1/19
Madagascar,MDG,Africa,Sub-Saharan Africa,46.869,-18.767,2019,4.166,0.245,0.824,0.501,0.193,0.191,0.076,1/1/19
Egypt,EGY,Africa,Middle East & North Africa,30.802,26.821,2019,4.151,0.875,0.983,0.597,0.374,0.069,0.095,1/1/19
Sierra Leone,SLE,Africa,Sub-Saharan Africa,-11.78,8.461,2019,3.926,0.241,0.748,0.204,0.382,0.258,0.048,1/1/19
Burundi,BDI,Africa,Sub-Saharan Africa,29.919,-3.373,2019,3.775,,0.404,0.295,0.275,0.187,0.212,1/1/19
Zambia,ZMB,Africa,Sub-Saharan Africa,27.849,-13.134,2019,3.759,0.537,0.896,0.364,0.491,0.251,0.087,1/1/19
Haiti,HTI,North America,America,-72.285,18.971,2019,3.721,0.285,0.647,0.374,0.169,0.464,0.162,1/1/19
Lesotho,LSO,Africa,Sub-Saharan Africa,28.234,-29.61,2019,3.653,0.455,1.089,0.101,0.409,0.103,0.05,1/1/19
India,IND,Asia,South Asia,78.963,20.594,2019,3.573,0.731,0.644,0.541,0.581,0.237,0.106,1/1/19
Malawi,MWI,Africa,Sub-Saharan Africa,34.302,-13.254,2019,3.538,0.177,0.53,0.446,0.487,0.213,0.132,1/1/19
Yemen,YEM,Asia,Middle East & North Africa,48.516,15.553,2019,3.527,0.393,1.177,0.415,0.244,0.095,0.087,1/1/19
Botswana,BWA,Africa,Sub-Saharan Africa,24.685,-22.328,2019,3.479,0.998,1.086,0.494,0.509,0.033,0.102,1/1/19
Tanzania,TZA,Africa,Sub-Saharan Africa,34.889,-6.369,2019,3.476,0.457,0.873,0.443,0.509,0.272,0.204,1/1/19
Central African Republic,CAF,Africa,Sub-Saharan Africa,20.939,6.611,2019,3.476,0.041,,,0.293,0.254,0.028,1/1/19
Rwanda,RWA,Africa,Sub-Saharan Africa,29.874,-1.94,2019,3.312,0.343,0.523,0.572,0.604,0.236,0.486,1/1/19
Zimbabwe,ZWE,Africa,Sub-Saharan Africa,29.155,-19.015,2019,3.299,0.426,1.048,0.375,0.377,0.151,0.081,1/1/19
South Sudan,SSD,Africa,Sub-Saharan Africa,31.6,4.85,2019,2.817,0.289,0.553,0.209,0.066,0.21,0.111,1/1/19
Afghanistan,AFG,Asia,South Asia,67.71,33.939,2019,2.567,0.301,0.356,0.266,,0.135,0.001,1/1/19
Finland,FIN,Europe,Europe & Central Asia,25.748,61.924,2018,7.858,,0.962,,0.938,-0.132,0.199,1/1/18
Denmark,DNK,Europe,Europe & Central Asia,9.502,56.264,2018,7.649,,0.958,,0.935,0.016,0.151,1/1/18
Switzerland,CHE,Europe,Europe & Central Asia,8.228,46.818,2018,7.509,,0.93,,0.926,0.096,0.301,1/1/18
Netherlands,NLD,Europe,Europe & Central Asia,5.291,52.133,2018,7.463,,0.939,,0.92,0.156,0.371,1/1/18
Norway,NOR,Europe,Europe & Central Asia,8.469,60.472,2018,7.444,,0.966,,0.96,0.076,0.268,1/1/18
Austria,AUT,Europe,Europe & Central Asia,14.55,47.516,2018,7.396,,0.912,,0.904,0.052,0.523,1/1/18
Sweden,SWE,Europe,Europe & Central Asia,18.644,60.128,2018,7.375,,0.931,,0.942,0.07,0.263,1/1/18
New Zealand,NZL,Oceania,East Asia & Pacific,174.886,-40.901,2018,7.37,,0.954,,0.949,0.117,0.207,1/1/18
Luxembourg,LUX,Europe,Europe & Central Asia,6.13,49.815,2018,7.243,,0.902,,0.884,-0.025,0.385,1/1/18
United Kingdom,GBR,Europe,Europe & Central Asia,-1.436,52.378,2018,7.233,,0.928,,0.838,0.222,0.404,1/1/18
Australia,AUS,Oceania,East Asia & Pacific,133.775,-25.274,2018,7.177,,0.94,,0.916,0.138,0.405,1/1/18
Canada,CAN,North America,America,-106.347,56.13,2018,7.175,,0.923,,0.946,0.098,0.372,1/1/18
Costa Rica,CRI,North America,America,-83.753,9.749,2018,7.141,,0.876,,0.942,-0.104,0.781,1/1/18
Germany,DEU,Europe,Europe & Central Asia,10.452,51.166,2018,7.118,,0.92,,0.877,0.03,0.496,1/1/18
Czech Republic,CZE,Europe,Europe & Central Asia,15.473,49.817,2018,7.034,,0.929,,0.79,-0.294,0.851,1/1/18
Ireland,IRL,Europe,Europe & Central Asia,-8.244,53.413,2018,6.962,,0.938,,0.861,0.14,0.362,1/1/18
Israel,ISR,Asia,Middle East & North Africa,34.852,31.046,2018,6.927,,0.91,,0.725,0.053,0.77,1/1/18
Malta,MLT,Europe,Europe & Central Asia,14.375,35.937,2018,6.91,,0.932,,0.927,0,0.595,1/1/18
Belgium,BEL,Europe,Europe & Central Asia,4.47,50.504,2018,6.892,,0.93,,0.808,-0.127,0.63,1/1/18
United States,USA,North America,America,-95.713,37.09,2018,6.883,,0.904,,0.825,0.108,0.71,1/1/18
France,FRA,Europe,Europe & Central Asia,2.214,46.228,2018,6.666,,0.921,,0.816,-0.142,0.582,1/1/18
Guatemala,GTM,North America,America,-90.231,15.783,2018,6.627,,0.841,,0.91,-0.011,0.765,1/1/18
United Arab Emirates,ARE,Asia,Middle East & North Africa,53.848,23.424,2018,6.604,,0.851,,0.944,0.036,,1/1/18
Mexico,MEX,North America,America,-102.553,23.635,2018,6.55,,0.858,,0.816,-0.182,0.809,1/1/18
Italy,ITA,Europe,Europe & Central Asia,12.567,41.872,2018,6.517,,0.913,,0.65,-0.023,0.888,1/1/18
Spain,ESP,Europe,Europe & Central Asia,-3.749,40.464,2018,6.513,,0.91,,0.722,-0.079,0.777,1/1/18
Taiwan Province of China,TWN,Asia,East Asia & Pacific,120.961,23.698,2018,6.467,,0.896,,0.741,0,0.736,1/1/18
Chile,CHL,South America,America,-71.543,-35.675,2018,6.436,,0.89,,0.789,-0.071,0.816,1/1/18
Kosovo,XKK,Europe,Europe & Central Asia,21.167,42.24,2018,6.392,,0.822,,0.89,0,0.922,1/1/18
Singapore,SGP,Asia,East Asia & Pacific,103.82,1.352,2018,6.375,,0.903,,0.916,0,0.097,1/1/18
Uruguay,URY,South America,America,-55.766,-32.523,2018,6.372,,0.917,,0.876,-0.108,0.683,1/1/18
Saudi Arabia,SAU,Asia,Middle East & North Africa,45.079,23.886,2018,6.356,,0.868,,0.855,-0.21,,1/1/18
Lithuania,LTU,Europe,Europe & Central Asia,23.881,55.169,2018,6.309,,0.929,,0.699,-0.241,0.852,1/1/18
Panama,PAN,North America,America,-80.782,8.538,2018,6.281,,0.904,,0.861,-0.123,0.837,1/1/18
Cyprus,CYP,Europe,Europe & Central Asia,33.43,35.126,2018,6.276,,0.826,,0.794,0,0.848,1/1/18
El Salvador,SLV,North America,America,-88.897,13.794,2018,6.276,,0.824,,0.863,-0.097,0.827,1/1/18
Slovenia,SVN,Europe,Europe & Central Asia,14.995,46.151,2018,6.249,,0.941,,0.942,-0.122,0.839,1/1/18
Slovakia,SVK,Europe,Europe & Central Asia,19.699,48.669,2018,6.235,,0.922,,0.758,-0.18,0.91,1/1/18
Uzbekistan,UZB,Asia,Europe & Central Asia,64.585,41.377,2018,6.205,,0.921,,0.97,0.312,0.52,1/1/18
Brazil,BRA,South America,America,-51.925,-14.235,2018,6.191,,0.882,,0.751,-0.126,0.763,1/1/18
Romania,ROU,Europe,Europe & Central Asia,24.967,45.943,2018,6.151,,0.818,,0.845,-0.22,0.921,1/1/18
Ecuador,ECU,South America,America,-78.183,-1.831,2018,6.128,,0.851,,0.869,-0.104,0.831,1/1/18
Estonia,EST,Europe,Europe & Central Asia,25.014,58.595,2018,6.091,,0.933,,0.886,-0.145,0.621,1/1/18
Thailand,THA,Asia,East Asia & Pacific,100.993,15.87,2018,6.012,,0.873,,0.905,0.252,0.907,1/1/18
Kazakhstan,KAZ,Asia,Europe & Central Asia,66.924,48.02,2018,6.008,,0.937,,0.84,-0.109,0.824,1/1/18
Colombia,COL,South America,America,-74.297,4.571,2018,5.984,,0.871,,0.851,-0.155,0.855,1/1/18
Serbia,SRB,Europe,Europe & Central Asia,21.006,44.017,2018,5.936,,0.853,,0.74,-0.099,0.864,1/1/18
Portugal,PRT,Europe,Europe & Central Asia,-8.224,39.4,2018,5.92,,0.887,,0.877,-0.263,0.88,1/1/18
Bolivia,BOL,South America,America,-63.589,-16.29,2018,5.916,,0.827,,0.863,-0.088,0.786,1/1/18
Honduras,HND,North America,America,-86.242,15.2,2018,5.908,,0.827,,0.872,0.106,0.804,1/1/18
Latvia,LVA,Europe,Europe & Central Asia,24.603,56.88,2018,5.901,,0.913,,0.608,-0.217,0.799,1/1/18
Bosnia and Herzegovina,BIH,Europe,Europe & Central Asia,17.679,43.916,2018,5.887,,0.836,,0.659,0.125,0.913,1/1/18
Mauritius,MUS,Africa,Sub-Saharan Africa,57.552,-20.348,2018,5.882,,0.909,,0.867,-0.082,0.785,1/1/18
Philippines,PHL,Asia,East Asia & Pacific,121.774,12.88,2018,5.869,,0.846,,0.918,-0.113,0.726,1/1/18
South Korea,KOR,Asia,East Asia & Pacific,126.967,37.55,2018,5.84,,0.798,,0.6,-0.094,0.797,1/1/18
Benin,BEN,Africa,Sub-Saharan Africa,2.316,9.308,2018,5.82,,0.504,,0.713,0.025,0.747,1/1/18
Nicaragua,NIC,North America,America,-85.207,12.865,2018,5.819,,0.854,,0.797,0.003,0.713,1/1/18
