countryName,alpha3,continent,region,longitude,latitude,year,happiness,gdpPerCapita,socialSupport,lifeExpectancy,lifeChoices,generosity,corruption
Finland,FIN,Europe,Europe & Central Asia,25.7482,61.9241,2022,7.804,1.888,1.585,0.535,0.772,0.126,0.535
Denmark,DNK,Europe,Europe & Central Asia,9.5018,56.2639,2022,7.586,1.949,1.548,0.537,0.734,0.208,0.525
Iceland,ISL,Europe,Europe & Central Asia,-19.0208,64.9631,2022,7.530,1.926,1.620,0.559,0.738,0.250,0.187
Israel,ISR,Asia,Middle East & North Africa,34.8516,31.0461,2022,7.473,1.833,1.521,0.577,0.569,0.124,0.158
Netherlands,NLD,Europe,Europe & Central Asia,5.2913,52.1326,2022,7.403,1.942,1.488,0.545,0.672,0.251,0.394
Sweden,SWE,Europe,Europe & Central Asia,18.6435,60.1282,2022,7.395,1.921,1.510,0.562,0.754,0.225,0.520
Norway,NOR,Europe,Europe & Central Asia,8.4689,60.4720,2022,7.315,1.994,1.521,0.544,0.752,0.212,0.463
Switzerland,CHE,Europe,Europe & Central Asia,8.2275,46.8182,2022,7.240,2.022,1.463,0.582,0.678,0.151,0.475
Luxembourg,LUX,Europe,Europe & Central Asia,6.1296,49.8153,2022,7.228,2.200,1.357,0.549,0.710,0.149,0.418
New Zealand,NZL,Oceania,East Asia & Pacific,174.8860,-40.9006,2022,7.123,1.842,1.544,0.513,0.672,0.230,0.471
Austria,AUT,Europe,Europe & Central Asia,14.5501,47.5162,2022,7.097,1.927,1.382,0.535,0.630,0.191,0.310
Australia,AUS,Oceania,East Asia & Pacific,133.7751,-25.2744,2022,7.095,1.899,1.497,0.532,0.677,0.242,0.310
Canada,CAN,North America,America,-106.3468,56.1304,2022,6.961,1.881,1.484,0.541,0.656,0.218,0.364
Ireland,IRL,Europe,Europe & Central Asia,-8.2439,53.4129,2022,6.911,2.152,1.425,0.539,0.656,0.186,0.409
United States,USA,North America,America,-95.7129,37.0902,2022,6.894,1.980,1.460,0.390,0.557,0.210,0.172
Germany,DEU,Europe,Europe & Central Asia,10.4515,51.1657,2022,6.892,1.919,1.401,0.539,0.618,0.153,0.365
Belgium,BEL,Europe,Europe & Central Asia,4.4699,50.5039,2022,6.859,1.907,1.449,0.528,0.590,0.137,0.273
Czechia,CZE,Europe,Europe & Central Asia,15.4730,49.8175,2022,6.845,1.823,1.544,0.477,0.693,0.158,0.050
United Kingdom,GBR,Europe,Europe & Central Asia,-1.4360,52.3781,2022,6.796,1.857,1.366,0.511,0.626,0.272,0.340
Lithuania,LTU,Europe,Europe & Central Asia,23.8813,55.1694,2022,6.763,1.808,1.511,0.432,0.487,0.059,0.089
France,FRA,Europe,Europe & Central Asia,2.2137,46.2276,2022,6.661,1.856,1.433,0.566,0.582,0.083,0.270
Slovenia,SVN,Europe,Europe & Central Asia,14.9955,46.1512,2022,6.650,1.815,1.539,0.532,0.707,0.144,0.113
Costa Rica,CRI,North America,America,-83.7534,9.7489,2022,6.609,1.587,1.340,0.503,0.683,0.099,0.116
Romania,ROU,Europe,Europe & Central Asia,24.9668,45.9432,2022,6.589,1.726,1.280,0.423,0.631,0.044,0.000
Singapore,SGP,Asia,East Asia & Pacific,103.8198,1.3521,2022,6.587,2.168,1.354,0.607,0.660,0.170,0.561
United Arab Emirates,ARE,Asia,Middle East & North Africa,53.8478,23.4241,2022,6.571,2.015,1.223,0.401,0.745,0.188,0.247
Taiwan Province of China,TWN,Asia,East Asia & Pacific,120.9605,23.6978,2022,6.535,1.890,1.372,0.492,0.562,0.067,0.178
Uruguay,URY,South America,America,-55.7658,-32.5228,2022,6.494,1.617,1.445,0.435,0.683,0.102,0.254
Slovakia,SVK,Europe,Europe & Central Asia,19.6990,48.6690,2022,6.469,1.731,1.544,0.472,0.494,0.128,0.022
Saudi Arabia,SAU,Asia,Middle East & North Africa,45.0792,23.8859,2022,6.463,1.861,1.370,0.351,0.682,0.093,0.170
Estonia,EST,Europe,Europe & Central Asia,25.0136,58.5953,2022,6.455,1.798,1.526,0.494,0.728,0.153,0.372
Spain,ESP,Europe,Europe & Central Asia,-3.7492,40.4637,2022,6.436,1.798,1.491,0.567,0.533,0.101,0.157
Italy,ITA,Europe,Europe & Central Asia,12.5674,41.8719,2022,6.405,1.832,1.365,0.559,0.438,0.097,0.063
Kosovo,XKK,Europe,Europe & Central Asia,21.1670,42.2400,2022,6.368,1.374,1.269,0.372,0.639,0.275,0.045
Chile,CHL,South America,America,-71.5430,-35.6751,2022,6.334,1.645,1.384,0.511,0.546,0.131,0.076
Mexico,MEX,North America,America,-102.5528,23.6345,2022,6.330,1.550,1.169,0.389,0.632,0.086,0.115
Malta,MLT,Europe,Europe & Central Asia,14.3754,35.9375,2022,6.300,1.841,1.468,0.547,0.671,0.200,0.143
Panama,PAN,North America,America,-80.7821,8.5380,2022,6.265,1.714,1.402,0.475,0.630,0.065,0.036
Poland,POL,Europe,Europe & Central Asia,19.1451,51.9194,2022,6.260,1.767,1.474,0.477,0.511,0.120,0.139
Nicaragua,NIC,North America,America,-85.2072,12.8654,2022,6.259,1.109,1.292,0.385,0.660,0.148,0.218
Latvia,LVA,Europe,Europe & Central Asia,24.6032,56.8796,2022,6.213,1.737,1.505,0.405,0.580,0.107,0.071
Bahrain,BHR,Asia,Middle East & North Africa,50.6378,25.9304,2022,6.173,1.883,1.269,0.389,0.748,0.199,0.138
Guatemala,GTM,North America,America,-90.2308,15.7835,2022,6.150,1.287,1.188,0.310,0.631,0.106,0.066
Kazakhstan,KAZ,Asia,Europe & Central Asia,66.9237,48.0196,2022,6.144,1.664,1.491,0.389,0.628,0.136,0.149
Serbia,SRB,Europe,Europe & Central Asia,21.0059,44.0165,2022,6.144,1.552,1.343,0.424,0.617,0.246,0.081
Cyprus,CYP,Europe,Europe & Central Asia,33.4299,35.1264,2022,6.130,1.824,1.224,0.580,0.455,0.104,0.050
Japan,JPN,Asia,East Asia & Pacific,138.2529,36.2048,2022,6.129,1.825,1.396,0.622,0.556,0.009,0.207
Croatia,HRV,Europe,Europe & Central Asia,15.2000,45.1000,2022,6.125,1.727,1.455,0.475,0.500,0.087,0.003
Brazil,BRA,South America,America,-51.9253,-14.2350,2022,6.125,1.454,1.250,0.387,0.558,0.131,0.137
El Salvador,SLV,North America,America,-88.8965,13.7942,2022,6.122,1.278,1.044,0.383,0.713,0.079,0.222
Hungary,HUN,Europe,Europe & Central Asia,19.5033,47.1625,2022,6.041,1.754,1.519,0.435,0.501,0.105,0.065
Argentina,ARG,South America,America,-63.6167,-38.4161,2022,6.024,1.590,1.388,0.427,0.587,0.088,0.082
Honduras,HND,North America,America,-86.2419,15.2000,2022,6.023,1.115,1.072,0.341,0.613,0.189,0.062
Uzbekistan,UZB,Asia,Europe & Central Asia,64.5853,41.3775,2022,6.014,1.227,1.347,0.375,0.740,0.260,0.208
Malaysia,MYS,Asia,East Asia & Pacific,101.9758,4.2105,2022,6.012,1.665,1.155,0.385,0.659,0.222,0.122
Portugal,PRT,Europe,Europe & Central Asia,-8.2245,39.3999,2022,5.968,1.758,1.356,0.537,0.693,0.031,0.037
South Korea,KOR,Asia,East Asia & Pacific,126.9667,37.5500,2022,5.951,1.853,1.188,0.603,0.446,0.112,0.163
Greece,GRC,Europe,Europe & Central Asia,21.8243,39.0742,2022,5.931,1.708,1.247,0.535,0.248,0.008,0.097
Mauritius,MUS,Africa,Sub-Saharan Africa,57.5522,-20.3484,2022,5.902,1.589,1.382,0.336,0.574,0.121,0.110
Thailand,THA,Asia,East Asia & Pacific,100.9925,15.8700,2022,5.843,1.515,1.344,0.461,0.624,0.291,0.013
Mongolia,MNG,Asia,East Asia & Pacific,103.8467,46.8625,2022,5.840,1.379,1.494,0.244,0.425,0.239,0.058
Kyrgyzstan,KGZ,Asia,Europe & Central Asia,74.7661,41.2044,2022,5.825,1.061,1.439,0.417,0.735,0.234,0.018
Moldova,MDA,Europe,Europe & Central Asia,28.3699,47.4116,2022,5.819,1.425,1.302,0.375,0.610,0.093,0.020
China,CHN,Asia,East Asia & Pacific,104.1954,35.8617,2022,5.818,1.510,1.249,0.468,0.666,0.115,0.145
Vietnam,VNM,Asia,East Asia & Pacific,108.2772,14.0583,2022,5.763,1.349,1.212,0.381,0.741,0.134,0.122
Paraguay,PRY,South America,America,-58.4438,-23.4425,2022,5.738,1.428,1.427,0.392,0.678,0.148,0.062
Montenegro,MNE,Europe,Europe & Central Asia,19.3744,42.7087,2022,5.722,1.537,1.385,0.424,0.563,0.170,0.061
Jamaica,JAM,North America,America,-77.2975,18.1096,2022,5.703,1.305,1.329,0.411,0.587,0.079,0.039
Bolivia,BOL,South America,America,-63.5887,-16.2902,2022,5.684,1.240,1.187,0.329,0.648,0.103,0.060
Russia,RUS,Asia,Europe & Central Asia,105.3188,61.5240,2022,5.661,1.680,1.383,0.366,0.449,0.120,0.091
Bosnia and Herzegovina,BIH,Europe,Europe & Central Asia,17.6791,43.9159,2022,5.633,1.467,1.361,0.429,0.485,0.247,0.008
Colombia,COL,South America,America,-74.2973,4.5709,2022,5.630,1.455,1.213,0.486,0.562,0.080,0.068
Dominican Republic,DOM,North America,America,-70.1627,18.7357,2022,5.569,1.536,1.227,0.351,0.623,0.083,0.195
Ecuador,ECU,South America,America,-78.1834,-1.8312,2022,5.559,1.343,1.173,0.476,0.560,0.079,0.069
Peru,PER,South America,America,-75.0152,-9.1900,2022,5.526,1.390,1.153,0.499,0.549,0.073,0.027
Philippines,PHL,Asia,East Asia & Pacific,121.7740,12.8797,2022,5.523,1.238,1.108,0.286,0.714,0.104,0.141
Bulgaria,BGR,Europe,Europe & Central Asia,25.4858,42.7339,2022,5.466,1.635,1.457,0.408,0.557,0.106,0.013
Nepal,NPL,Asia,South Asia,84.1240,28.3949,2022,5.360,0.979,1.027,0.281,0.567,0.215,0.104
Armenia,ARM,Asia,Europe & Central Asia,45.0382,40.0691,2022,5.342,1.466,1.134,0.443,0.551,0.053,0.160
Tajikistan,TJK,Asia,Europe & Central Asia,71.2761,38.8610,2022,5.330,0.972,1.248,0.291,0.599,0.104,0.292
Algeria,DZA,Africa,Middle East & North Africa,1.6596,28.0339,2022,5.329,1.353,1.298,0.409,0.252,0.073,0.152
Hong Kong S.A.R. of China,HKG,Asia,East Asia & Pacific,114.1095,22.3964,2022,5.308,1.951,1.201,0.702,0.407,0.123,0.390
Albania,ALB,Europe,Europe & Central Asia,20.1683,41.1533,2022,5.277,1.449,0.951,0.480,0.549,0.133,0.037
Indonesia,IDN,Asia,East Asia & Pacific,113.9213,-0.7893,2022,5.277,1.384,1.169,0.314,0.663,0.422,0.038
South Africa,ZAF,Africa,Sub-Saharan Africa,22.9375,-30.5595,2022,5.275,1.417,1.428,0.149,0.464,0.090,0.019
Congo (Brazzaville),COG,Africa,Sub-Saharan Africa,15.8277,-0.2280,2022,5.267,0.921,0.665,0.145,0.464,0.134,0.136
North Macedonia,MKD,Europe,Europe & Central Asia,21.7453,41.6086,2022,5.254,1.498,1.171,0.408,0.515,0.207,0.020
Venezuela,VEN,South America,America,-66.5897,6.4238,2022,5.211,0.000,1.257,0.341,0.369,0.205,0.084
Laos,LAO,Asia,East Asia & Pacific,102.4955,19.8563,2022,5.111,1.232,0.853,0.257,0.715,0.185,0.162
Georgia,GEO,Asia,Europe & Central Asia,83.1132,32.9605,2022,5.109,1.477,0.947,0.366,0.539,0.000,0.201
Guinea,GIN,Africa,Sub-Saharan Africa,-9.6966,9.9456,2022,5.072,0.844,0.776,0.072,0.369,0.204,0.102
Ukraine,UKR,Europe,Europe & Central Asia,31.1656,48.3794,2022,5.071,1.358,1.354,0.355,0.551,0.265,0.016
Ivory Coast,CIV,Africa,Sub-Saharan Africa,-5.5471,7.5400,2022,5.053,1.094,0.584,0.120,0.467,0.138,0.131
Gabon,GAB,Africa,Sub-Saharan Africa,11.6094,-0.8037,2022,5.035,1.438,1.021,0.183,0.346,0.036,0.102
Nigeria,NGA,Africa,Sub-Saharan Africa,8.6753,9.0820,2022,4.981,1.065,1.007,0.092,0.448,0.176,0.013
Cameroon,CMR,Africa,Sub-Saharan Africa,12.3547,7.3697,2022,4.973,0.965,0.871,0.118,0.405,0.144,0.059
Mozambique,MOZ,Africa,Sub-Saharan Africa,35.5296,-18.6657,2022,4.954,0.570,0.885,0.000,0.625,0.161,0.192
Iraq,IRQ,Asia,Middle East & North Africa,43.6793,33.2232,2022,4.941,1.281,0.953,0.324,0.351,0.134,0.038
State of Palestine,PSE,Asia,Middle East & North Africa,17.2666,42.0944,2022,4.908,1.144,1.309,,0.416,0.065,0.067
Morocco,MAR,Africa,Middle East & North Africa,-7.0926,31.7917,2022,4.903,1.236,0.535,0.337,0.540,0.013,0.085
Iran,IRN,Asia,Middle East & North Africa,53.6880,32.4279,2022,4.876,1.465,1.102,0.411,0.281,0.229,0.130
Senegal,SEN,Africa,Sub-Saharan Africa,-14.4524,14.4974,2022,4.855,0.943,0.727,0.231,0.519,0.142,0.060
Mauritania,MRT,Africa,Sub-Saharan Africa,-10.9408,21.0079,2022,4.724,1.099,0.764,0.244,0.320,0.130,0.195
Burkina Faso,BFA,Africa,Sub-Saharan Africa,-1.5616,12.2383,2022,4.638,0.768,0.814,0.107,0.419,0.188,0.113
Namibia,NAM,Africa,Sub-Saharan Africa,18.4904,-22.9576,2022,4.631,1.289,1.126,0.145,0.383,0.069,0.071
Turkey,TUR,Asia,Europe & Central Asia,35.2433,38.9637,2022,4.614,1.714,1.148,0.467,0.125,0.095,0.096
Ghana,GHA,Africa,Sub-Saharan Africa,-1.0232,7.9465,2022,4.605,1.101,0.756,0.197,0.526,0.211,0.035
Pakistan,PAK,Asia,South Asia,69.3451,30.3753,2022,4.555,1.081,0.657,0.158,0.511,0.141,0.102
Niger,NER,Africa,Sub-Saharan Africa,8.0817,17.6078,2022,4.501,0.561,0.628,0.137,0.540,0.154,0.140
Tunisia,TUN,Africa,Middle East & North Africa,9.5375,33.8869,2022,4.497,1.333,0.981,0.422,0.259,0.022,0.016
Kenya,KEN,Africa,Sub-Saharan Africa,37.9062,-0.0236,2022,4.487,1.051,0.881,0.190,0.418,0.291,0.055
Sri Lanka,LKA,Asia,South Asia,80.7718,7.8731,2022,4.442,1.422,1.224,0.426,0.539,0.120,0.086
Uganda,UGA,Africa,Sub-Saharan Africa,32.2903,1.3733,2022,4.432,0.785,1.144,0.201,0.425,0.197,0.051
Chad,TCD,Africa,Sub-Saharan Africa,18.7322,15.4542,2022,4.397,0.622,0.962,0.043,0.393,0.255,0.088
Cambodia,KHM,Asia,East Asia & Pacific,104.9910,12.5657,2022,4.393,1.025,1.024,0.283,0.768,0.176,0.051
Benin,BEN,Africa,Sub-Saharan Africa,2.3158,9.3077,2022,4.374,0.924,0.242,0.124,0.481,0.114,0.253
Myanmar,MMR,Asia,East Asia & Pacific,95.9562,21.9140,2022,4.372,1.032,1.125,0.269,0.460,0.400,0.194
Bangladesh,BGD,Asia,South Asia,90.3563,23.6850,2022,4.282,1.133,0.513,0.355,0.617,0.139,0.165
Gambia,GMB,Africa,Sub-Saharan Africa,-15.3101,13.4432,2022,4.279,0.761,0.614,0.174,0.286,0.332,0.033
Mali,MLI,Africa,Sub-Saharan Africa,-3.9962,17.5707,2022,4.198,0.763,0.637,0.106,0.441,0.121,0.059
Egypt,EGY,Africa,Middle East & North Africa,30.8025,26.8206,2022,4.170,1.377,0.972,0.326,0.467,0.038,0.250
Togo,TGO,Africa,Sub-Saharan Africa,0.8248,8.6195,2022,4.137,0.770,0.642,0.161,0.367,0.149,0.136
Jordan,JOR,Asia,Middle East & North Africa,36.2384,30.5852,2022,4.120,1.292,0.980,0.438,0.517,0.056,0.173
Ethiopia,ETH,Africa,Sub-Saharan Africa,40.4897,9.1450,2022,4.091,0.793,1.114,0.250,0.451,0.283,0.101
Liberia,LBR,Africa,Sub-Saharan Africa,-9.4295,6.4281,2022,4.042,0.628,0.644,0.141,0.471,0.219,0.071
India,IND,Asia,South Asia,78.9629,20.5937,2022,4.036,1.159,0.674,0.252,0.685,0.175,0.111
Madagascar,MDG,Africa,Sub-Saharan Africa,46.8691,-18.7669,2022,4.019,0.632,0.779,0.178,0.187,0.177,0.134
Zambia,ZMB,Africa,Sub-Saharan Africa,27.8493,-13.1339,2022,3.982,0.914,0.890,0.095,0.545,0.189,0.080
Tanzania,TZA,Africa,Sub-Saharan Africa,34.8888,-6.3690,2022,3.694,0.836,0.787,0.214,0.607,0.234,0.269
Comoros,COM,Africa,Sub-Saharan Africa,43.8722,-11.8750,2022,3.545,0.914,0.327,0.215,0.117,0.129,0.145
Malawi,MWI,Africa,Sub-Saharan Africa,34.3015,-13.2543,2022,3.495,0.637,0.479,0.189,0.490,0.139,0.129
Botswana,BWA,Africa,Sub-Saharan Africa,24.6849,-22.3285,2022,3.435,1.471,1.041,0.087,0.480,0.021,0.071
Congo (Kinshasa),COD,Africa,Sub-Saharan Africa,15.8277,-0.2280,2022,3.207,0.531,0.784,0.105,0.375,0.183,0.068
Zimbabwe,ZWE,Africa,Sub-Saharan Africa,29.1549,-19.0154,2022,3.204,0.758,0.881,0.069,0.363,0.112,0.117
Sierra Leone,SLE,Africa,Sub-Saharan Africa,-11.7799,8.4606,2022,3.138,0.670,0.540,0.092,0.371,0.193,0.051
Lebanon,LBN,Asia,Middle East & North Africa,35.8623,33.8547,2022,2.392,1.417,0.476,0.398,0.123,0.061,0.027
Afghanistan,AFG,Asia,South Asia,67.7100,33.9391,2022,1.859,0.645,0.000,0.087,0.000,0.093,0.059
Finland,FIN,Europe,Europe & Central Asia,25.7482,61.9241,2021,7.821,1.892,1.258,0.775,0.736,0.109,0.534
Denmark,DNK,Europe,Europe & Central Asia,9.5018,56.2639,2021,7.636,1.953,1.243,0.777,0.719,0.188,0.532
Iceland,ISL,Europe,Europe & Central Asia,-19.0208,64.9631,2021,7.557,1.936,1.320,0.803,0.718,0.270,0.191
Switzerland,CHE,Europe,Europe & Central Asia,8.2275,46.8182,2021,7.512,2.026,1.226,0.822,0.677,0.147,0.461
Netherlands,NLD,Europe,Europe & Central Asia,5.2913,52.1326,2021,7.415,1.945,1.206,0.787,0.651,0.271,0.419
Luxembourg*,LUX,Europe,Europe & Central Asia,6.1296,49.8153,2021,7.404,2.209,1.155,0.790,0.700,0.120,0.388
Sweden,SWE,Europe,Europe & Central Asia,18.6435,60.1282,2021,7.384,1.920,1.204,0.803,0.724,0.218,0.512
Norway,NOR,Europe,Europe & Central Asia,8.4689,60.4720,2021,7.365,1.997,1.239,0.786,0.728,0.217,0.474
Israel,ISR,Asia,Middle East & North Africa,34.8516,31.0461,2021,7.364,1.826,1.221,0.818,0.568,0.155,0.143
New Zealand,NZL,Oceania,East Asia & Pacific,174.8860,-40.9006,2021,7.200,1.852,1.235,0.752,0.680,0.245,0.483
Austria,AUT,Europe,Europe & Central Asia,14.5501,47.5162,2021,7.163,1.931,1.165,0.774,0.623,0.193,0.329
Australia,AUS,Oceania,East Asia & Pacific,133.7751,-25.2744,2021,7.162,1.900,1.203,0.772,0.676,0.258,0.341
Ireland,IRL,Europe,Europe & Central Asia,-8.2439,53.4129,2021,7.041,2.129,1.166,0.779,0.627,0.190,0.408
Germany,DEU,Europe,Europe & Central Asia,10.4515,51.1657,2021,7.034,1.924,1.088,0.776,0.585,0.163,0.358
Canada,CAN,North America,America,-106.3468,56.1304,2021,7.025,1.886,1.188,0.783,0.659,0.217,0.368
United States,USA,North America,America,-95.7129,37.0902,2021,6.977,1.982,1.182,0.628,0.574,0.220,0.177
United Kingdom,GBR,Europe,Europe & Central Asia,-1.4360,52.3781,2021,6.943,1.867,1.143,0.750,0.597,0.289,0.329
Czechia,CZE,Europe,Europe & Central Asia,15.4730,49.8175,2021,6.920,1.815,1.260,0.715,0.660,0.158,0.048
Belgium,BEL,Europe,Europe & Central Asia,4.4699,50.5039,2021,6.805,1.907,1.106,0.764,0.492,0.049,0.204
France,FRA,Europe,Europe & Central Asia,2.2137,46.2276,2021,6.687,1.863,1.219,0.808,0.567,0.070,0.266
Bahrain,BHR,Asia,Middle East & North Africa,50.6378,25.9304,2021,6.647,1.854,1.029,0.625,0.693,0.199,0.155
Slovenia,SVN,Europe,Europe & Central Asia,14.9955,46.1512,2021,6.630,1.810,1.249,0.769,0.685,0.118,0.115
Costa Rica,CRI,North America,America,-83.7534,9.7489,2021,6.582,1.584,1.054,0.744,0.661,0.089,0.102
United Arab Emirates,ARE,Asia,Middle East & North Africa,53.8478,23.4241,2021,6.576,1.998,0.980,0.633,0.702,0.204,0.250
Saudi Arabia,SAU,Asia,Middle East & North Africa,45.0792,23.8859,2021,6.523,1.870,1.092,0.577,0.651,0.078,0.180
Taiwan Province of China,TWN,Asia,East Asia & Pacific,120.9605,23.6978,2021,6.512,1.897,1.095,0.733,0.542,0.075,0.168
Singapore,SGP,Asia,East Asia & Pacific,103.8198,1.3521,2021,6.480,2.149,1.127,0.851,0.672,0.163,0.587
Romania,ROU,Europe,Europe & Central Asia,24.9668,45.9432,2021,6.477,1.719,1.006,0.655,0.605,0.039,0.006
Spain,ESP,Europe,Europe & Central Asia,-3.7492,40.4637,2021,6.476,1.808,1.211,0.808,0.505,0.101,0.149
Uruguay,URY,South America,America,-55.7658,-32.5228,2021,6.474,1.615,1.180,0.672,0.665,0.103,0.265
Italy,ITA,Europe,Europe & Central Asia,12.5674,41.8719,2021,6.467,1.834,1.052,0.801,0.412,0.085,0.059
Kosovo,XKK,Europe,Europe & Central Asia,21.1670,42.2400,2021,6.455,1.362,0.949,0.569,0.599,0.309,0.035
Malta,MLT,Europe,Europe & Central Asia,14.3754,35.9375,2021,6.447,1.838,1.169,0.789,0.679,0.174,0.166
Lithuania,LTU,Europe,Europe & Central Asia,23.8813,55.1694,2021,6.446,1.804,1.204,0.659,0.496,0.053,0.077
Slovakia,SVK,Europe,Europe & Central Asia,19.6990,48.6690,2021,6.391,1.736,1.232,0.707,0.479,0.118,0.025
Estonia,EST,Europe,Europe & Central Asia,25.0136,58.5953,2021,6.341,1.793,1.232,0.728,0.689,0.123,0.333
Panama,PAN,North America,America,-80.7821,8.5380,2021,6.309,1.715,1.107,0.709,0.592,0.049,0.051
Brazil,BRA,South America,America,-51.9253,-14.2350,2021,6.293,1.462,1.044,0.615,0.546,0.131,0.134
Guatemala*,GTM,North America,America,-90.2308,15.7835,2021,6.262,1.274,0.831,0.522,0.662,0.112,0.115
Kazakhstan,KAZ,Asia,Europe & Central Asia,66.9237,48.0196,2021,6.234,1.668,1.220,0.611,0.584,0.134,0.157
Cyprus,CYP,Europe,Europe & Central Asia,33.4299,35.1264,2021,6.221,1.815,0.909,0.819,0.448,0.123,0.062
Latvia,LVA,Europe,Europe & Central Asia,24.6032,56.8796,2021,6.180,1.732,1.221,0.637,0.502,0.075,0.090
Serbia,SRB,Europe,Europe & Central Asia,21.0059,44.0165,2021,6.178,1.550,1.086,0.658,0.546,0.219,0.088
Chile,CHL,South America,America,-71.5430,-35.6751,2021,6.172,1.651,1.080,0.748,0.460,0.124,0.069
Nicaragua,NIC,North America,America,-85.2072,12.8654,2021,6.165,1.105,1.029,0.617,0.617,0.168,0.212
Mexico,MEX,North America,America,-102.5528,23.6345,2021,6.128,1.552,0.886,0.623,0.621,0.092,0.115
Croatia,HRV,Europe,Europe & Central Asia,15.2000,45.1000,2021,6.125,1.705,1.183,0.709,0.535,0.109,0.000
Poland,POL,Europe,Europe & Central Asia,19.1451,51.9194,2021,6.123,1.758,1.174,0.712,0.523,0.124,0.140
El Salvador,SLV,North America,America,-88.8965,13.7942,2021,6.120,1.265,0.768,0.607,0.666,0.089,0.212
Kuwait*,KWT,Asia,Middle East & North Africa,47.4818,29.3117,2021,6.106,1.904,0.983,0.747,0.617,0.087,0.147
Hungary,HUN,Europe,Europe & Central Asia,19.5033,47.1625,2021,6.086,1.748,1.233,0.668,0.485,0.078,0.064
Mauritius,MUS,Africa,Sub-Saharan Africa,57.5522,-20.3484,2021,6.071,1.591,1.116,0.568,0.589,0.131,0.107
Uzbekistan,UZB,Asia,Europe & Central Asia,64.5853,41.3775,2021,6.063,1.219,1.092,0.600,0.716,0.283,0.240
Japan,JPN,Asia,East Asia & Pacific,138.2529,36.2048,2021,6.039,1.835,1.089,0.866,0.537,0.007,0.218
Honduras,HND,North America,America,-86.2419,15.2000,2021,6.022,1.111,0.885,0.555,0.582,0.202,0.076
Portugal,PRT,Europe,Europe & Central Asia,-8.2245,39.3999,2021,6.016,1.760,1.078,0.777,0.655,0.016,0.039
Argentina,ARG,South America,America,-63.6167,-38.4161,2021,5.967,1.592,1.102,0.662,0.555,0.081,0.085
Greece,GRC,Europe,Europe & Central Asia,21.8243,39.0742,2021,5.948,1.703,0.980,0.774,0.249,0.015,0.108
South Korea,KOR,Asia,East Asia & Pacific,126.9667,37.5500,2021,5.935,1.851,0.886,0.841,0.414,0.111,0.176
Philippines,PHL,Asia,East Asia & Pacific,121.7740,12.8797,2021,5.904,1.268,0.912,0.514,0.678,0.107,0.142
Thailand,THA,Asia,East Asia & Pacific,100.9925,15.8700,2021,5.891,1.535,1.096,0.697,0.617,0.321,0.026
Moldova,MDA,Europe,Europe & Central Asia,28.3699,47.4116,2021,5.857,1.417,1.008,0.597,0.561,0.102,0.028
Jamaica,JAM,North America,America,-77.2975,18.1096,2021,5.850,1.296,1.045,0.646,0.567,0.080,0.053
Kyrgyzstan,KGZ,Asia,Europe & Central Asia,74.7661,41.2044,2021,5.828,1.069,1.109,0.638,0.693,0.208,0.025
Belarus*,BLR,Europe,Europe & Central Asia,27.9534,53.7098,2021,5.821,1.562,1.157,0.629,0.342,0.040,0.282
Colombia,COL,South America,America,-74.2973,4.5709,2021,5.781,1.452,0.929,0.720,0.545,0.087,0.077
Bosnia and Herzegovina,BIH,Europe,Europe & Central Asia,17.6791,43.9159,2021,5.768,1.468,1.068,0.665,0.448,0.244,0.006
Mongolia,MNG,Asia,East Asia & Pacific,103.8467,46.8625,2021,5.761,1.393,1.197,0.467,0.398,0.247,0.059
Dominican Republic,DOM,North America,America,-70.1627,18.7357,2021,5.737,1.538,1.003,0.577,0.606,0.084,0.179
Malaysia,MYS,Asia,East Asia & Pacific,101.9758,4.2105,2021,5.711,1.689,0.938,0.620,0.654,0.213,0.126
Bolivia,BOL,South America,America,-63.5887,-16.2902,2021,5.600,1.256,0.880,0.555,0.627,0.112,0.064
China,CHN,Asia,East Asia & Pacific,104.1954,35.8617,2021,5.585,1.508,0.958,0.705,0.656,0.099,0.142
Paraguay,PRY,South America,America,-58.4438,-23.4425,2021,5.578,1.409,1.130,0.624,0.629,0.171,0.059
Peru,PER,South America,America,-75.0152,-9.1900,2021,5.559,1.397,0.865,0.735,0.545,0.090,0.037
Montenegro,MNE,Europe,Europe & Central Asia,19.3744,42.7087,2021,5.547,1.573,1.023,0.659,0.460,0.135,0.077
Ecuador,ECU,South America,America,-78.1834,-1.8312,2021,5.533,1.352,0.879,0.708,0.565,0.080,0.083
Vietnam,VNM,Asia,East Asia & Pacific,108.2772,14.0583,2021,5.485,1.252,0.932,0.611,0.707,0.143,0.105
Turkmenistan*,TKM,Asia,Europe & Central Asia,59.5563,38.9697,2021,5.474,1.484,1.319,0.516,0.649,0.314,0.032
North Cyprus*,CYP,Europe,Europe & Central Asia,33.4299,35.1264,2021,5.467,1.815,0.888,0.819,0.523,0.130,0.213
Russia,RUS,Asia,Europe & Central Asia,105.3188,61.5240,2021,5.459,1.685,1.095,0.586,0.401,0.117,0.080
Hong Kong S.A.R. of China,HKG,Asia,East Asia & Pacific,114.1095,22.3964,2021,5.425,1.957,0.954,0.942,0.400,0.147,0.383
Armenia,ARM,Asia,Europe & Central Asia,45.0382,40.0691,2021,5.399,1.434,0.820,0.668,0.558,0.054,0.210
Tajikistan,TJK,Asia,Europe & Central Asia,71.2761,38.8610,2021,5.377,0.966,1.005,0.518,0.572,0.118,0.304
Nepal,NPL,Asia,South Asia,84.1240,28.3949,2021,5.377,0.984,0.784,0.499,0.519,0.237,0.130
Bulgaria,BGR,Europe,Europe & Central Asia,25.4858,42.7339,2021,5.371,1.625,1.163,0.640,0.563,0.123,0.021
Libya*,LBY,Africa,Middle East & North Africa,17.0000,25.0000,2021,5.330,1.476,0.943,0.606,0.477,0.106,0.179
Indonesia,IDN,Asia,East Asia & Pacific,113.9213,-0.7893,2021,5.240,1.382,0.883,0.539,0.620,0.468,0.047
Ivory Coast,CIV,Africa,Sub-Saharan Africa,-5.5471,7.5400,2021,5.235,1.094,0.442,0.322,0.451,0.149,0.124
North Macedonia,MKD,Europe,Europe & Central Asia,21.7453,41.6086,2021,5.199,1.505,0.863,0.637,0.488,0.215,0.031
Albania,ALB,Europe,Europe & Central Asia,20.1683,41.1533,2021,5.199,1.439,0.646,0.719,0.511,0.138,0.028
South Africa,ZAF,Africa,Sub-Saharan Africa,22.9375,-30.5595,2021,5.194,1.425,1.088,0.361,0.442,0.089,0.046
Azerbaijan*,AZE,Asia,Europe & Central Asia,47.5769,40.1431,2021,5.173,1.458,1.093,0.560,0.601,0.023,0.341
Gambia*,GMB,Africa,Sub-Saharan Africa,-15.3101,13.4432,2021,5.164,0.785,0.621,0.369,0.367,0.388,0.103
Bangladesh,BGD,Asia,South Asia,90.3563,23.6850,2021,5.155,1.060,0.614,0.581,0.622,0.125,0.187
Laos,LAO,Asia,East Asia & Pacific,102.4955,19.8563,2021,5.140,1.239,0.654,0.479,0.679,0.197,0.184
Algeria,DZA,Africa,Middle East & North Africa,1.6596,28.0339,2021,5.122,1.363,0.970,0.643,0.146,0.106,0.150
Liberia*,LBR,Africa,Sub-Saharan Africa,-9.4295,6.4281,2021,5.122,0.636,0.670,0.309,0.405,0.178,0.080
Ukraine,UKR,Europe,Europe & Central Asia,31.1656,48.3794,2021,5.084,1.411,1.081,0.583,0.473,0.188,0.017
Congo (Kinshasa),COD,Africa,Sub-Saharan Africa,15.8277,-0.2280,2021,5.075,0.950,0.405,0.355,0.431,0.130,0.146
Morocco,MAR,Africa,Middle East & North Africa,-7.0926,31.7917,2021,5.060,1.208,0.268,0.565,0.492,0.020,0.102
Mozambique,MOZ,Africa,Sub-Saharan Africa,35.5296,-18.6657,2021,5.048,0.578,0.660,0.191,0.593,0.185,0.200
Cameroon,CMR,Africa,Sub-Saharan Africa,12.3547,7.3697,2021,5.048,0.968,0.672,0.317,0.397,0.152,0.074
Senegal,SEN,Africa,Sub-Saharan Africa,-14.4524,14.4974,2021,5.046,0.933,0.530,0.447,0.494,0.143,0.081
Niger*,NER,Africa,Sub-Saharan Africa,8.0817,17.6078,2021,5.003,0.570,0.560,0.326,0.571,0.165,0.145
Georgia,GEO,Asia,Europe & Central Asia,83.1132,32.9605,2021,4.973,1.467,0.612,0.595,0.508,0.000,0.208
Gabon,GAB,Africa,Sub-Saharan Africa,11.6094,-0.8037,2021,4.958,1.459,0.738,0.396,0.343,0.032,0.099
Iraq,IRQ,Asia,Middle East & North Africa,43.6793,33.2232,2021,4.941,1.289,0.682,0.554,0.328,0.147,0.046
Venezuela,VEN,South America,America,-66.5897,6.4238,2021,4.925,0.000,0.968,0.578,0.283,0.225,0.082
Guinea,GIN,Africa,Sub-Saharan Africa,-9.6966,9.9456,2021,4.891,0.848,0.566,0.275,0.334,0.214,0.116
Iran,IRN,Asia,Middle East & North Africa,53.6880,32.4279,2021,4.888,1.410,0.741,0.642,0.281,0.241,0.146
Ghana,GHA,Africa,Sub-Saharan Africa,-1.0232,7.9465,2021,4.872,1.112,0.595,0.409,0.500,0.230,0.056
Turkey,TUR,Asia,Europe & Central Asia,35.2433,38.9637,2021,4.744,1.707,0.865,0.702,0.209,0.087,0.115
Burkina Faso,BFA,Africa,Sub-Saharan Africa,-1.5616,12.2383,2021,4.670,0.779,0.565,0.320,0.382,0.186,0.126
Cambodia,KHM,Asia,East Asia & Pacific,104.9910,12.5657,2021,4.640,1.019,0.732,0.505,0.740,0.166,0.068
Benin,BEN,Africa,Sub-Saharan Africa,2.3158,9.3077,2021,4.623,0.932,0.064,0.335,0.479,0.127,0.230
Comoros*,COM,Africa,Sub-Saharan Africa,43.8722,-11.8750,2021,4.609,0.899,0.476,0.424,0.185,0.195,0.125
Uganda,UGA,Africa,Sub-Saharan Africa,32.2903,1.3733,2021,4.603,0.777,0.875,0.418,0.402,0.222,0.066
Nigeria,NGA,Africa,Sub-Saharan Africa,8.6753,9.0820,2021,4.552,1.079,0.732,0.300,0.444,0.175,0.038
Kenya,KEN,Africa,Sub-Saharan Africa,37.9062,-0.0236,2021,4.543,1.032,0.605,0.401,0.440,0.322,0.082
Tunisia,TUN,Africa,Middle East & North Africa,9.5375,33.8869,2021,4.516,1.350,0.596,0.656,0.316,0.029,0.029
Pakistan,PAK,Asia,South Asia,69.3451,30.3753,2021,4.516,1.049,0.413,0.374,0.448,0.181,0.112
Palestinian Territories,PSE,Asia,Middle East & North Africa,17.2666,42.0944,2021,4.483,1.148,0.957,0.521,0.336,0.073,0.079
Mali,MLI,Africa,Sub-Saharan Africa,-3.9962,17.5707,2021,4.479,0.792,0.483,0.311,0.350,0.128,0.042
Namibia,NAM,Africa,Sub-Saharan Africa,18.4904,-22.9576,2021,4.459,1.292,0.877,0.354,0.384,0.067,0.071
"Eswatini, Kingdom of",SWZ,Africa,Sub-Saharan Africa,31.4659,-26.5225,2021,4.396,1.274,0.786,0.197,0.259,0.038,0.154
Myanmar,MMR,Asia,East Asia & Pacific,95.9562,21.9140,2021,4.394,1.038,0.829,0.491,0.513,0.452,0.194
Sri Lanka,LKA,Asia,South Asia,80.7718,7.8731,2021,4.362,1.415,0.934,0.660,0.529,0.150,0.079
Madagascar*,MDG,Africa,Sub-Saharan Africa,46.8691,-18.7669,2021,4.339,0.670,0.645,0.378,0.202,0.143,0.154
Egypt,EGY,Africa,Middle East & North Africa,30.8025,26.8206,2021,4.288,1.388,0.732,0.548,0.469,0.041,0.254
Chad*,TCD,Africa,Sub-Saharan Africa,18.7322,15.4542,2021,4.251,0.662,0.506,0.225,0.180,0.182,0.077
Ethiopia,ETH,Africa,Sub-Saharan Africa,40.4897,9.1450,2021,4.241,0.788,0.809,0.457,0.472,0.205,0.136
Yemen*,YEM,Asia,Middle East & North Africa,48.5164,15.5527,2021,4.197,0.691,1.043,0.384,0.330,0.090,0.098
Mauritania*,MRT,Africa,Sub-Saharan Africa,-10.9408,21.0079,2021,4.153,1.100,0.865,0.450,0.304,0.088,0.138
Jordan,JOR,Asia,Middle East & North Africa,36.2384,30.5852,2021,4.152,1.324,0.724,0.675,0.476,0.058,0.200
Togo,TGO,Africa,Sub-Saharan Africa,0.8248,8.6195,2021,4.112,0.771,0.322,0.360,0.292,0.174,0.132
India,IND,Asia,South Asia,78.9629,20.5937,2021,3.777,1.167,0.376,0.471,0.647,0.198,0.123
Zambia,ZMB,Africa,Sub-Saharan Africa,27.8493,-13.1339,2021,3.760,0.930,0.577,0.306,0.525,0.203,0.083
Malawi,MWI,Africa,Sub-Saharan Africa,34.3015,-13.2543,2021,3.750,0.648,0.279,0.388,0.477,0.140,0.157
Tanzania,TZA,Africa,Sub-Saharan Africa,34.8888,-6.3690,2021,3.702,0.848,0.597,0.425,0.578,0.248,0.270
Sierra Leone,SLE,Africa,Sub-Saharan Africa,-11.7799,8.4606,2021,3.574,0.686,0.416,0.273,0.387,0.202,0.055
Lesotho*,LSO,Africa,Sub-Saharan Africa,28.2336,-29.6100,2021,3.512,0.839,0.848,0.000,0.419,0.076,0.018
Botswana*,BWA,Africa,Sub-Saharan Africa,24.6849,-22.3285,2021,3.471,1.503,0.815,0.280,0.571,0.012,0.102
Rwanda*,RWA,Africa,Sub-Saharan Africa,29.8739,-1.9403,2021,3.268,0.785,0.133,0.462,0.621,0.187,0.544
Zimbabwe,ZWE,Africa,Sub-Saharan Africa,29.1549,-19.0154,2021,2.995,0.947,0.690,0.270,0.329,0.106,0.105
Lebanon,LBN,Asia,Middle East & North Africa,35.8623,33.8547,2021,2.955,1.392,0.498,0.631,0.103,0.082,0.034
Afghanistan,AFG,Asia,South Asia,67.7100,33.9391,2021,2.404,0.758,0.000,0.289,0.000,0.089,0.005
Finland,FIN,Europe,Europe & Central Asia,25.7482,61.9241,2020,7.842,1.446,1.106,0.741,0.691,0.124,0.481
Denmark,DNK,Europe,Europe & Central Asia,9.5018,56.2639,2020,7.620,1.502,1.108,0.763,0.686,0.208,0.485
Switzerland,CHE,Europe,Europe & Central Asia,8.2275,46.8182,2020,7.571,1.566,1.079,0.816,0.653,0.204,0.413
Iceland,ISL,Europe,Europe & Central Asia,-19.0208,64.9631,2020,7.554,1.482,1.172,0.772,0.698,0.293,0.170
Netherlands,NLD,Europe,Europe & Central Asia,5.2913,52.1326,2020,7.464,1.501,1.079,0.753,0.647,0.302,0.384
Norway,NOR,Europe,Europe & Central Asia,8.4689,60.4720,2020,7.392,1.543,1.108,0.782,0.703,0.249,0.427
Sweden,SWE,Europe,Europe & Central Asia,18.6435,60.1282,2020,7.363,1.478,1.062,0.763,0.685,0.244,0.448
Luxembourg,LUX,Europe,Europe & Central Asia,6.1296,49.8153,2020,7.324,1.751,1.003,0.760,0.639,0.166,0.353
New Zealand,NZL,Oceania,East Asia & Pacific,174.8860,-40.9006,2020,7.277,1.400,1.094,0.785,0.665,0.276,0.445
Austria,AUT,Europe,Europe & Central Asia,14.5501,47.5162,2020,7.268,1.492,1.062,0.782,0.640,0.215,0.292
Australia,AUS,Oceania,East Asia & Pacific,133.7751,-25.2744,2020,7.183,1.453,1.076,0.801,0.647,0.291,0.317
Israel,ISR,Asia,Middle East & North Africa,34.8516,31.0461,2020,7.157,1.376,1.074,0.788,0.509,0.208,0.119
Germany,DEU,Europe,Europe & Central Asia,10.4515,51.1657,2020,7.155,1.480,0.993,0.757,0.600,0.195,0.306
Canada,CAN,North America,America,-106.3468,56.1304,2020,7.103,1.447,1.044,0.798,0.648,0.246,0.335
Ireland,IRL,Europe,Europe & Central Asia,-8.2439,53.4129,2020,7.085,1.644,1.092,0.753,0.606,0.238,0.367
Costa Rica,CRI,North America,America,-83.7534,9.7489,2020,7.069,1.134,0.966,0.722,0.673,0.105,0.083
United Kingdom,GBR,Europe,Europe & Central Asia,-1.4360,52.3781,2020,7.064,1.423,1.062,0.757,0.580,0.340,0.306
Czech Republic,CZE,Europe,Europe & Central Asia,15.4730,49.8175,2020,6.965,1.370,1.090,0.703,0.580,0.052,0.046
United States,USA,North America,America,-95.7129,37.0902,2020,6.951,1.533,1.030,0.621,0.554,0.252,0.154
Belgium,BEL,Europe,Europe & Central Asia,4.4699,50.5039,2020,6.834,1.463,0.998,0.747,0.489,0.088,0.187
France,FRA,Europe,Europe & Central Asia,2.2137,46.2276,2020,6.690,1.421,1.081,0.804,0.536,0.092,0.235
Bahrain,BHR,Asia,Middle East & North Africa,50.6378,25.9304,2020,6.647,1.409,0.899,0.662,0.661,0.246,0.139
Malta,MLT,Europe,Europe & Central Asia,14.3754,35.9375,2020,6.602,1.411,1.055,0.747,0.664,0.275,0.183
Taiwan Province of China,TWN,Asia,East Asia & Pacific,120.9605,23.6978,2020,6.584,1.480,0.982,0.665,0.490,0.142,0.139
United Arab Emirates,ARE,Asia,Middle East & North Africa,53.8478,23.4241,2020,6.561,1.555,0.860,0.594,0.670,0.236,0.223
Saudi Arabia,SAU,Asia,Middle East & North Africa,45.0792,23.8859,2020,6.494,1.435,0.964,0.571,0.603,0.090,0.163
Spain,ESP,Europe,Europe & Central Asia,-3.7492,40.4637,2020,6.491,1.375,1.057,0.826,0.462,0.135,0.124
Italy,ITA,Europe,Europe & Central Asia,12.5674,41.8719,2020,6.483,1.393,0.940,0.798,0.379,0.133,0.047
Slovenia,SVN,Europe,Europe & Central Asia,14.9955,46.1512,2020,6.461,1.360,1.093,0.722,0.690,0.122,0.085
Guatemala,GTM,North America,America,-90.2308,15.7835,2020,6.435,0.845,0.790,0.519,0.638,0.163,0.105
Uruguay,URY,South America,America,-55.7658,-32.5228,2020,6.431,1.164,1.042,0.649,0.625,0.128,0.223
Singapore,SGP,Asia,East Asia & Pacific,103.8198,1.3521,2020,6.377,1.695,1.019,0.897,0.664,0.176,0.547
Kosovo,XKK,Europe,Europe & Central Asia,21.1670,42.2400,2020,6.372,0.937,0.807,0.483,0.593,0.356,0.014
Slovakia,SVK,Europe,Europe & Central Asia,19.6990,48.6690,2020,6.331,1.304,1.066,0.653,0.468,0.107,0.018
Brazil,BRA,South America,America,-51.9253,-14.2350,2020,6.330,1.028,0.944,0.571,0.514,0.142,0.117
Mexico,MEX,North America,America,-102.5528,23.6345,2020,6.317,1.126,0.830,0.634,0.585,0.092,0.089
Jamaica,JAM,North America,America,-77.2975,18.1096,2020,6.309,0.891,0.932,0.599,0.618,0.099,0.035
Lithuania,LTU,Europe,Europe & Central Asia,23.8813,55.1694,2020,6.255,1.350,1.065,0.612,0.476,0.056,0.073
Cyprus,CYP,Europe,Europe & Central Asia,33.4299,35.1264,2020,6.223,1.377,0.765,0.801,0.464,0.178,0.061
Estonia,EST,Europe,Europe & Central Asia,25.0136,58.5953,2020,6.189,1.344,1.079,0.640,0.641,0.119,0.263
Panama,PAN,North America,America,-80.7821,8.5380,2020,6.180,1.298,0.976,0.667,0.596,0.079,0.053
Uzbekistan,UZB,Asia,Europe & Central Asia,64.5853,41.3775,2020,6.179,0.769,1.027,0.528,0.716,0.391,0.271
Chile,CHL,South America,America,-71.5430,-35.6751,2020,6.172,1.200,0.946,0.678,0.438,0.159,0.070
Poland,POL,Europe,Europe & Central Asia,19.1451,51.9194,2020,6.166,1.309,0.982,0.668,0.558,0.080,0.130
Kazakhstan,KAZ,Asia,Europe & Central Asia,66.9237,48.0196,2020,6.152,1.230,1.103,0.527,0.573,0.143,0.132
Romania,ROU,Europe,Europe & Central Asia,24.9668,45.9432,2020,6.140,1.275,0.832,0.595,0.564,0.045,0.001
Kuwait,KWT,Asia,Middle East & North Africa,47.4818,29.3117,2020,6.106,1.461,0.857,0.580,0.591,0.120,0.130
Serbia,SRB,Europe,Europe & Central Asia,21.0059,44.0165,2020,6.078,1.101,0.924,0.634,0.482,0.189,0.066
El Salvador,SLV,North America,America,-88.8965,13.7942,2020,6.061,0.845,0.675,0.565,0.615,0.116,0.160
Mauritius,MUS,Africa,Sub-Saharan Africa,57.5522,-20.3484,2020,6.049,1.178,0.996,0.574,0.590,0.153,0.096
Latvia,LVA,Europe,Europe & Central Asia,24.6032,56.8796,2020,6.032,1.285,1.047,0.587,0.405,0.082,0.089
Colombia,COL,South America,America,-74.2973,4.5709,2020,6.012,1.021,0.866,0.615,0.554,0.100,0.063
Hungary,HUN,Europe,Europe & Central Asia,19.5033,47.1625,2020,5.992,1.301,1.083,0.615,0.454,0.067,0.040
Thailand,THA,Asia,East Asia & Pacific,100.9925,15.8700,2020,5.985,1.107,0.957,0.596,0.611,0.375,0.028
Nicaragua,NIC,North America,America,-85.2072,12.8654,2020,5.972,0.693,0.904,0.604,0.553,0.201,0.176
Japan,JPN,Asia,East Asia & Pacific,138.2529,36.2048,2020,5.940,1.389,0.949,0.838,0.504,0.020,0.192
Argentina,ARG,South America,America,-63.6167,-38.4161,2020,5.929,1.162,0.980,0.646,0.544,0.069,0.067
Portugal,PRT,Europe,Europe & Central Asia,-8.2245,39.3999,2020,5.929,1.323,0.939,0.760,0.621,0.029,0.033
Honduras,HND,North America,America,-86.2419,15.2000,2020,5.919,0.703,0.787,0.593,0.578,0.241,0.083
Croatia,HRV,Europe,Europe & Central Asia,15.2000,45.1000,2020,5.882,1.251,1.039,0.703,0.453,0.111,0.000
Philippines,PHL,Asia,East Asia & Pacific,121.7740,12.8797,2020,5.880,0.853,0.828,0.426,0.651,0.125,0.126
South Korea,KOR,Asia,East Asia & Pacific,126.9667,37.5500,2020,5.845,1.403,0.758,0.801,0.353,0.134,0.135
Peru,PER,South America,America,-75.0152,-9.1900,2020,5.840,0.986,0.833,0.623,0.536,0.087,0.031
Bosnia and Herzegovina,BIH,Europe,Europe & Central Asia,17.6791,43.9159,2020,5.813,1.032,0.919,0.618,0.395,0.261,0.005
Moldova,MDA,Europe,Europe & Central Asia,28.3699,47.4116,2020,5.766,0.985,0.888,0.542,0.536,0.137,0.013
Ecuador,ECU,South America,America,-78.1834,-1.8312,2020,5.764,0.935,0.806,0.640,0.560,0.107,0.062
Kyrgyzstan,KGZ,Asia,Europe & Central Asia,74.7661,41.2044,2020,5.744,0.665,0.971,0.501,0.673,0.266,0.020
Greece,GRC,Europe,Europe & Central Asia,21.8243,39.0742,2020,5.723,1.273,0.811,0.760,0.243,0.000,0.074
Bolivia,BOL,South America,America,-63.5887,-16.2902,2020,5.716,0.842,0.782,0.486,0.600,0.138,0.064
Mongolia,MNG,Asia,East Asia & Pacific,103.8467,46.8625,2020,5.677,0.966,1.065,0.442,0.397,0.263,0.053
Paraguay,PRY,South America,America,-58.4438,-23.4425,2020,5.653,0.983,0.970,0.549,0.602,0.206,0.037
Montenegro,MNE,Europe,Europe & Central Asia,19.3744,42.7087,2020,5.581,1.155,0.891,0.637,0.397,0.166,0.081
Dominican Republic,DOM,North America,America,-70.1627,18.7357,2020,5.545,1.106,0.879,0.555,0.581,0.101,0.144
North Cyprus,CYP,Europe,Europe & Central Asia,33.4299,35.1264,2020,5.536,1.377,0.806,0.801,0.503,0.196,0.200
Belarus,BLR,Europe,Europe & Central Asia,27.9534,53.7098,2020,5.534,1.124,1.007,0.560,0.326,0.070,0.199
Russia,RUS,Asia,Europe & Central Asia,105.3188,61.5240,2020,5.477,1.241,0.992,0.511,0.409,0.115,0.060
Hong Kong S.A.R. of China,HKG,Asia,East Asia & Pacific,114.1095,22.3964,2020,5.477,1.525,0.841,0.893,0.408,0.232,0.342
Tajikistan,TJK,Asia,Europe & Central Asia,71.2761,38.8610,2020,5.466,0.508,0.895,0.498,0.548,0.152,0.247
Vietnam,VNM,Asia,East Asia & Pacific,108.2772,14.0583,2020,5.411,0.817,0.873,0.616,0.679,0.124,0.091
Libya,LBY,Africa,Middle East & North Africa,17.0000,25.0000,2020,5.410,1.044,0.821,0.435,0.474,0.131,0.174
Malaysia,MYS,Asia,East Asia & Pacific,101.9758,4.2105,2020,5.384,1.259,0.797,0.587,0.624,0.270,0.064
Indonesia,IDN,Asia,East Asia & Pacific,113.9213,-0.7893,2020,5.345,0.954,0.786,0.433,0.598,0.541,0.046
Congo (Brazzaville),COG,Africa,Sub-Saharan Africa,15.8277,-0.2280,2020,5.342,0.518,0.392,0.307,0.381,0.144,0.124
China,CHN,Asia,East Asia & Pacific,104.1954,35.8617,2020,5.339,1.061,0.785,0.665,0.636,0.093,0.117
Ivory Coast,CIV,Africa,Sub-Saharan Africa,-5.5471,7.5400,2020,5.306,0.669,0.409,0.052,0.438,0.177,0.092
Armenia,ARM,Asia,Europe & Central Asia,45.0382,40.0691,2020,5.283,0.996,0.758,0.585,0.540,0.079,0.198
Nepal,NPL,Asia,South Asia,84.1240,28.3949,2020,5.269,0.519,0.702,0.496,0.488,0.287,0.135
Bulgaria,BGR,Europe,Europe & Central Asia,25.4858,42.7339,2020,5.266,1.181,1.055,0.583,0.494,0.125,0.005
Maldives,MDV,Asia,South Asia,73.2207,3.2028,2020,5.198,1.115,1.015,0.697,0.575,0.204,0.073
Azerbaijan,AZE,Asia,Europe & Central Asia,47.5769,40.1431,2020,5.171,1.025,0.841,0.541,0.526,0.043,0.276
Cameroon,CMR,Africa,Sub-Saharan Africa,12.3547,7.3697,2020,5.142,0.543,0.556,0.159,0.425,0.205,0.058
Senegal,SEN,Africa,Sub-Saharan Africa,-14.4524,14.4974,2020,5.132,0.518,0.558,0.357,0.381,0.158,0.088
Albania,ALB,Europe,Europe & Central Asia,20.1683,41.1533,2020,5.117,1.008,0.529,0.646,0.491,0.168,0.024
North Macedonia,MKD,Europe,Europe & Central Asia,21.7453,41.6086,2020,5.101,1.068,0.772,0.535,0.450,0.212,0.022
Ghana,GHA,Africa,Sub-Saharan Africa,-1.0232,7.9465,2020,5.088,0.680,0.595,0.287,0.517,0.268,0.058
Niger,NER,Africa,Sub-Saharan Africa,8.0817,17.6078,2020,5.074,0.162,0.402,0.167,0.516,0.200,0.157
Turkmenistan,TKM,Asia,Europe & Central Asia,59.5563,38.9697,2020,5.066,1.046,1.172,0.439,0.602,0.366,0.033
Gambia,GMB,Africa,Sub-Saharan Africa,-15.3101,13.4432,2020,5.051,0.367,0.511,0.210,0.384,0.465,0.123
Benin,BEN,Africa,Sub-Saharan Africa,2.3158,9.3077,2020,5.045,0.507,0.058,0.196,0.457,0.166,0.178
Laos,LAO,Asia,East Asia & Pacific,102.4955,19.8563,2020,5.030,0.808,0.598,0.330,0.643,0.268,0.179
Bangladesh,BGD,Asia,South Asia,90.3563,23.6850,2020,5.025,0.635,0.520,0.514,0.603,0.161,0.164
Guinea,GIN,Africa,Sub-Saharan Africa,-9.6966,9.9456,2020,4.984,0.420,0.399,0.206,0.384,0.250,0.111
South Africa,ZAF,Africa,Sub-Saharan Africa,22.9375,-30.5595,2020,4.956,0.967,0.895,0.265,0.447,0.144,0.051
Turkey,TUR,Asia,Europe & Central Asia,35.2433,38.9637,2020,4.948,1.260,0.809,0.590,0.236,0.097,0.104
Pakistan,PAK,Asia,South Asia,69.3451,30.3753,2020,4.934,0.637,0.423,0.322,0.418,0.252,0.097
Morocco,MAR,Africa,Middle East & North Africa,-7.0926,31.7917,2020,4.918,0.792,0.219,0.558,0.477,0.034,0.088
Venezuela,VEN,South America,America,-66.5897,6.4238,2020,4.892,0.852,0.897,0.574,0.284,0.078,0.072
Georgia,GEO,Asia,Europe & Central Asia,83.1132,32.9605,2020,4.891,1.030,0.470,0.498,0.488,0.032,0.181
Algeria,DZA,Africa,Middle East & North Africa,1.6596,28.0339,2020,4.887,0.946,0.765,0.552,0.119,0.144,0.120
Ukraine,UKR,Europe,Europe & Central Asia,31.1656,48.3794,2020,4.875,0.979,0.958,0.517,0.417,0.181,0.010
Iraq,IRQ,Asia,Middle East & North Africa,43.6793,33.2232,2020,4.854,0.910,0.638,0.381,0.302,0.153,0.041
Gabon,GAB,Africa,Sub-Saharan Africa,11.6094,-0.8037,2020,4.852,1.037,0.707,0.362,0.424,0.058,0.064
Burkina Faso,BFA,Africa,Sub-Saharan Africa,-1.5616,12.2383,2020,4.834,0.364,0.472,0.179,0.381,0.182,0.122
Cambodia,KHM,Asia,East Asia & Pacific,104.9910,12.5657,2020,4.830,0.603,0.680,0.426,0.702,0.210,0.061
Mozambique,MOZ,Africa,Sub-Saharan Africa,35.5296,-18.6657,2020,4.794,0.183,0.634,0.196,0.608,0.228,0.163
Nigeria,NGA,Africa,Sub-Saharan Africa,8.6753,9.0820,2020,4.759,0.663,0.625,0.051,0.433,0.212,0.039
Mali,MLI,Africa,Sub-Saharan Africa,-3.9962,17.5707,2020,4.723,0.387,0.590,0.110,0.384,0.164,0.072
Iran,IRN,Asia,Middle East & North Africa,53.6880,32.4279,2020,4.721,1.030,0.557,0.561,0.275,0.330,0.144
Uganda,UGA,Africa,Sub-Saharan Africa,32.2903,1.3733,2020,4.636,0.364,0.718,0.240,0.398,0.267,0.054
Liberia,LBR,Africa,Sub-Saharan Africa,-9.4295,6.4281,2020,4.625,0.228,0.580,0.253,0.430,0.221,0.057
Kenya,KEN,Africa,Sub-Saharan Africa,37.9062,-0.0236,2020,4.607,0.603,0.508,0.385,0.483,0.375,0.073
Tunisia,TUN,Africa,Middle East & North Africa,9.5375,33.8869,2020,4.596,0.919,0.515,0.590,0.334,0.057,0.044
Lebanon,LBN,Asia,Middle East & North Africa,35.8623,33.8547,2020,4.584,1.045,0.868,0.595,0.175,0.140,0.026
Namibia,NAM,Africa,Sub-Saharan Africa,18.4904,-22.9576,2020,4.574,0.882,0.801,0.262,0.411,0.091,0.059
Palestinian Territories,PSE,Asia,Middle East & North Africa,17.2666,42.0944,2020,4.517,0.646,0.819,0.434,0.330,0.082,0.075
Myanmar,MMR,Asia,East Asia & Pacific,95.9562,21.9140,2020,4.426,0.666,0.713,0.341,0.601,0.520,0.178
Jordan,JOR,Asia,Middle East & North Africa,36.2384,30.5852,2020,4.395,0.890,0.685,0.583,0.455,0.079,0.150
Chad,TCD,Africa,Sub-Saharan Africa,18.7322,15.4542,2020,4.355,0.255,0.353,0.000,0.240,0.215,0.084
Sri Lanka,LKA,Asia,South Asia,80.7718,7.8731,2020,4.325,0.990,0.820,0.593,0.559,0.239,0.049
Swaziland,SWZ,Africa,Sub-Saharan Africa,31.4659,-26.5225,2020,4.308,0.849,0.693,0.074,0.323,0.067,0.147
Comoros,COM,Africa,Sub-Saharan Africa,43.8722,-11.8750,2020,4.289,0.488,0.367,0.279,0.202,0.241,0.101
Egypt,EGY,Africa,Middle East & North Africa,30.8025,26.8206,2020,4.283,0.954,0.647,0.426,0.446,0.069,0.092
Ethiopia,ETH,Africa,Sub-Saharan Africa,40.4897,9.1450,2020,4.275,0.370,0.679,0.331,0.451,0.241,0.114
Mauritania,MRT,Africa,Sub-Saharan Africa,-10.9408,21.0079,2020,4.227,0.666,0.749,0.273,0.218,0.119,0.133
Madagascar,MDG,Africa,Sub-Saharan Africa,46.8691,-18.7669,2020,4.208,0.266,0.503,0.341,0.207,0.185,0.087
Togo,TGO,Africa,Sub-Saharan Africa,0.8248,8.6195,2020,4.107,0.254,0.239,0.203,0.289,0.209,0.107
Zambia,ZMB,Africa,Sub-Saharan Africa,27.8493,-13.1339,2020,4.073,0.528,0.552,0.231,0.487,0.227,0.074
Sierra Leone,SLE,Africa,Sub-Saharan Africa,-11.7799,8.4606,2020,3.849,0.279,0.377,0.100,0.408,0.243,0.047
India,IND,Asia,South Asia,78.9629,20.5937,2020,3.819,0.741,0.316,0.383,0.622,0.246,0.106
Burundi,BDI,Africa,Sub-Saharan Africa,29.9189,-3.3731,2020,3.775,0.000,0.062,0.155,0.298,0.172,0.212
Yemen,YEM,Asia,Middle East & North Africa,48.5164,15.5527,2020,3.658,0.329,0.831,0.272,0.268,0.092,0.089
Tanzania,TZA,Africa,Sub-Saharan Africa,34.8888,-6.3690,2020,3.623,0.433,0.540,0.300,0.549,0.307,0.231
Haiti,HTI,North America,America,-72.2852,18.9712,2020,3.615,0.294,0.173,0.227,0.257,0.463,0.139
Malawi,MWI,Africa,Sub-Saharan Africa,34.3015,-13.2543,2020,3.600,0.113,0.168,0.298,0.484,0.213,0.134
Lesotho,LSO,Africa,Sub-Saharan Africa,28.2336,-29.6100,2020,3.512,0.451,0.731,0.007,0.405,0.103,0.015
Botswana,BWA,Africa,Sub-Saharan Africa,24.6849,-22.3285,2020,3.467,1.099,0.724,0.340,0.539,0.027,0.088
Rwanda,RWA,Africa,Sub-Saharan Africa,29.8739,-1.9403,2020,3.415,0.364,0.202,0.407,0.627,0.227,0.493
Zimbabwe,ZWE,Africa,Sub-Saharan Africa,29.1549,-19.0154,2020,3.145,0.457,0.649,0.243,0.359,0.157,0.075
Afghanistan,AFG,Asia,South Asia,67.7100,33.9391,2020,2.523,0.370,0.000,0.126,0.000,0.122,0.010
Finland,FIN,Europe,Europe & Central Asia,25.7482,61.9241,2019,7.809,1.285,1.500,0.961,0.662,0.160,0.478
Denmark,DNK,Europe,Europe & Central Asia,9.5018,56.2639,2019,7.646,1.327,1.503,0.979,0.665,0.243,0.495
Switzerland,CHE,Europe,Europe & Central Asia,8.2275,46.8182,2019,7.560,1.391,1.472,1.041,0.629,0.269,0.408
Iceland,ISL,Europe,Europe & Central Asia,-19.0208,64.9631,2019,7.504,1.327,1.548,1.001,0.662,0.362,0.145
Norway,NOR,Europe,Europe & Central Asia,8.4689,60.4720,2019,7.488,1.424,1.495,1.008,0.670,0.288,0.434
Netherlands,NLD,Europe,Europe & Central Asia,5.2913,52.1326,2019,7.449,1.339,1.464,0.976,0.614,0.336,0.369
Sweden,SWE,Europe,Europe & Central Asia,18.6435,60.1282,2019,7.353,1.322,1.433,0.986,0.650,0.273,0.442
New Zealand,NZL,Oceania,East Asia & Pacific,174.8860,-40.9006,2019,7.300,1.242,1.487,1.008,0.647,0.326,0.461
Austria,AUT,Europe,Europe & Central Asia,14.5501,47.5162,2019,7.294,1.317,1.437,1.001,0.603,0.256,0.281
Luxembourg,LUX,Europe,Europe & Central Asia,6.1296,49.8153,2019,7.238,1.537,1.388,0.986,0.610,0.196,0.367
Canada,CAN,North America,America,-106.3468,56.1304,2019,7.232,1.302,1.435,1.023,0.644,0.282,0.352
Australia,AUS,Oceania,East Asia & Pacific,133.7751,-25.2744,2019,7.223,1.310,1.477,1.023,0.622,0.325,0.336
United Kingdom,GBR,Europe,Europe & Central Asia,-1.4360,52.3781,2019,7.165,1.273,1.458,0.976,0.525,0.373,0.323
Israel,ISR,Asia,Middle East & North Africa,34.8516,31.0461,2019,7.129,1.216,1.403,1.008,0.421,0.267,0.100
Costa Rica,CRI,North America,America,-83.7534,9.7489,2019,7.121,0.981,1.375,0.940,0.645,0.131,0.096
Ireland,IRL,Europe,Europe & Central Asia,-8.2439,53.4129,2019,7.094,1.447,1.471,0.976,0.588,0.295,0.373
Germany,DEU,Europe,Europe & Central Asia,10.4515,51.1657,2019,7.076,1.314,1.369,0.972,0.564,0.252,0.309
United States,USA,North America,America,-95.7129,37.0902,2019,6.940,1.374,1.405,0.832,0.535,0.298,0.152
Czech Republic,CZE,Europe,Europe & Central Asia,15.4730,49.8175,2019,6.911,1.212,1.405,0.895,0.506,0.046,0.050
Belgium,BEL,Europe,Europe & Central Asia,4.4699,50.5039,2019,6.864,1.296,1.399,0.965,0.500,0.147,0.209
United Arab Emirates,ARE,Asia,Middle East & North Africa,53.8478,23.4241,2019,6.791,1.431,1.251,0.788,0.653,0.281,0.220
Malta,MLT,Europe,Europe & Central Asia,14.3754,35.9375,2019,6.773,1.253,1.443,0.972,0.633,0.341,0.179
France,FRA,Europe,Europe & Central Asia,2.2137,46.2276,2019,6.664,1.268,1.459,1.030,0.514,0.113,0.227
Mexico,MEX,North America,America,-102.5528,23.6345,2019,6.465,1.024,1.226,0.832,0.554,0.083,0.083
Taiwan Province of China,TWN,Asia,East Asia & Pacific,120.9605,23.6978,2019,6.455,1.327,1.358,0.878,0.449,0.151,0.132
Uruguay,URY,South America,America,-55.7658,-32.5228,2019,6.440,1.071,1.425,0.857,0.594,0.132,0.193
Saudi Arabia,SAU,Asia,Middle East & North Africa,45.0792,23.8859,2019,6.406,1.334,1.310,0.760,0.548,0.087,0.163
Spain,ESP,Europe,Europe & Central Asia,-3.7492,40.4637,2019,6.401,1.231,1.421,1.051,0.426,0.165,0.110
Guatemala,GTM,North America,America,-90.2308,15.7835,2019,6.399,0.754,1.174,0.706,0.613,0.171,0.098
Italy,ITA,Europe,Europe & Central Asia,12.5674,41.8719,2019,6.387,1.236,1.347,1.023,0.321,0.170,0.040
Singapore,SGP,Asia,East Asia & Pacific,103.8198,1.3521,2019,6.377,1.520,1.395,1.138,0.635,0.219,0.533
Brazil,BRA,South America,America,-51.9253,-14.2350,2019,6.376,0.953,1.363,0.766,0.483,0.132,0.107
Slovenia,SVN,Europe,Europe & Central Asia,14.9955,46.1512,2019,6.363,1.209,1.465,0.933,0.647,0.146,0.077
El Salvador,SLV,North America,America,-88.8965,13.7942,2019,6.348,0.749,1.149,0.753,0.524,0.119,0.117
Kosovo,XKK,Europe,Europe & Central Asia,21.1670,42.2400,2019,6.325,0.840,1.184,0.673,0.557,0.325,0.009
Panama,PAN,North America,America,-80.7821,8.5380,2019,6.305,1.098,1.376,0.879,0.580,0.097,0.054
Slovakia,SVK,Europe,Europe & Central Asia,19.6990,48.6690,2019,6.281,1.195,1.424,0.853,0.424,0.117,0.011
Uzbekistan,UZB,Asia,Europe & Central Asia,64.5853,41.3775,2019,6.258,0.697,1.434,0.717,0.693,0.363,0.280
Chile,CHL,South America,America,-71.5430,-35.6751,2019,6.228,1.097,1.323,0.889,0.417,0.156,0.063
Bahrain,BHR,Asia,Middle East & North Africa,50.6378,25.9304,2019,6.227,1.297,1.315,0.839,0.610,0.287,0.127
Lithuania,LTU,Europe,Europe & Central Asia,23.8813,55.1694,2019,6.215,1.194,1.433,0.795,0.420,0.054,0.081
Trinidad and Tobago,TTO,North America,America,-61.2225,10.6918,2019,6.192,1.168,1.407,0.659,0.553,0.199,0.015
Poland,POL,Europe,Europe & Central Asia,19.1451,51.9194,2019,6.186,1.169,1.310,0.868,0.558,0.063,0.161
Colombia,COL,South America,America,-74.2973,4.5709,2019,6.163,0.932,1.334,0.810,0.527,0.092,0.046
Cyprus,CYP,Europe,Europe & Central Asia,33.4299,35.1264,2019,6.159,1.213,1.149,1.026,0.459,0.228,0.051
Nicaragua,NIC,North America,America,-85.2072,12.8654,2019,6.137,0.620,1.271,0.803,0.560,0.213,0.174
Romania,ROU,Europe,Europe & Central Asia,24.9668,45.9432,2019,6.124,1.120,1.194,0.792,0.535,0.068,0.001
Kuwait,KWT,Asia,Middle East & North Africa,47.4818,29.3117,2019,6.102,1.425,1.245,0.776,0.570,0.133,0.113
Mauritius,MUS,Africa,Sub-Saharan Africa,57.5522,-20.3484,2019,6.101,1.074,1.396,0.763,0.591,0.187,0.084
Kazakhstan,KAZ,Asia,Europe & Central Asia,66.9237,48.0196,2019,6.058,1.123,1.453,0.699,0.497,0.154,0.110
Estonia,EST,Europe,Europe & Central Asia,25.0136,58.5953,2019,6.022,1.192,1.453,0.843,0.577,0.125,0.202
Philippines,PHL,Asia,East Asia & Pacific,121.7740,12.8797,2019,6.006,0.775,1.245,0.602,0.622,0.129,0.130
Hungary,HUN,Europe,Europe & Central Asia,19.5033,47.1625,2019,6.000,1.164,1.423,0.807,0.386,0.070,0.028
Thailand,THA,Asia,East Asia & Pacific,100.9925,15.8700,2019,5.999,1.007,1.348,0.794,0.609,0.377,0.032
Argentina,ARG,South America,America,-63.6167,-38.4161,2019,5.975,1.028,1.373,0.850,0.521,0.070,0.060
Honduras,HND,North America,America,-86.2419,15.2000,2019,5.953,0.599,1.187,0.792,0.568,0.257,0.087
Latvia,LVA,Europe,Europe & Central Asia,24.6032,56.8796,2019,5.950,1.141,1.414,0.778,0.329,0.075,0.090
Ecuador,ECU,South America,America,-78.1834,-1.8312,2019,5.925,0.853,1.221,0.839,0.555,0.115,0.087
Portugal,PRT,Europe,Europe & Central Asia,-8.2245,39.3999,2019,5.911,1.169,1.340,0.979,0.590,0.053,0.028
Jamaica,JAM,North America,America,-77.2975,18.1096,2019,5.890,0.779,1.408,0.788,0.553,0.116,0.030
South Korea,KOR,Asia,East Asia & Pacific,126.9667,37.5500,2019,5.872,1.245,1.134,1.023,0.259,0.170,0.095
Japan,JPN,Asia,East Asia & Pacific,138.2529,36.2048,2019,5.871,1.267,1.332,1.073,0.495,0.036,0.181
Peru,PER,South America,America,-75.0152,-9.1900,2019,5.797,0.919,1.208,0.824,0.513,0.092,0.027
Serbia,SRB,Europe,Europe & Central Asia,21.0059,44.0165,2019,5.778,0.988,1.327,0.828,0.395,0.150,0.059
Bolivia,BOL,South America,America,-63.5887,-16.2902,2019,5.747,0.731,1.142,0.662,0.574,0.138,0.073
Pakistan,PAK,Asia,South Asia,69.3451,30.3753,2019,5.693,0.617,0.873,0.470,0.405,0.229,0.123
Paraguay,PRY,South America,America,-58.4438,-23.4425,2019,5.692,0.898,1.368,0.736,0.587,0.204,0.065
Dominican Republic,DOM,North America,America,-70.1627,18.7357,2019,5.689,0.983,1.329,0.742,0.563,0.112,0.116
Bosnia and Herzegovina,BIH,Europe,Europe & Central Asia,17.6791,43.9159,2019,5.674,0.918,1.204,0.814,0.305,0.264,0.001
Moldova,MDA,Europe,Europe & Central Asia,28.3699,47.4116,2019,5.608,0.708,1.237,0.713,0.390,0.174,0.014
Tajikistan,TJK,Asia,Europe & Central Asia,71.2761,38.8610,2019,5.556,0.475,1.218,0.681,0.521,0.182,0.222
Montenegro,MNE,Europe,Europe & Central Asia,19.3744,42.7087,2019,5.546,1.010,1.266,0.839,0.303,0.149,0.098
Russia,RUS,Asia,Europe & Central Asia,105.3188,61.5240,2019,5.546,1.127,1.379,0.680,0.399,0.099,0.046
Kyrgyzstan,KGZ,Asia,Europe & Central Asia,74.7661,41.2044,2019,5.542,0.513,1.341,0.681,0.615,0.301,0.030
Belarus,BLR,Europe,Europe & Central Asia,27.9534,53.7098,2019,5.540,1.019,1.387,0.753,0.291,0.090,0.194
North Cyprus,CYP,Europe,Europe & Central Asia,33.4299,35.1264,2019,5.536,1.213,1.183,1.026,0.478,0.199,0.200
Greece,GRC,Europe,Europe & Central Asia,21.8243,39.0742,2019,5.515,1.128,1.169,0.979,0.174,0.000,0.049
Hong Kong S.A.R. of China,HKG,Asia,East Asia & Pacific,114.1095,22.3964,2019,5.510,1.377,1.244,1.137,0.459,0.288,0.332
Croatia,HRV,Europe,Europe & Central Asia,15.2000,45.1000,2019,5.505,1.109,1.311,0.901,0.381,0.114,0.012
Libya,LBY,Africa,Middle East & North Africa,17.0000,25.0000,2019,5.489,1.022,1.196,0.616,0.451,0.143,0.172
Mongolia,MNG,Asia,East Asia & Pacific,103.8467,46.8625,2019,5.456,0.905,1.459,0.616,0.356,0.264,0.047
Malaysia,MYS,Asia,East Asia & Pacific,101.9758,4.2105,2019,5.384,1.168,1.174,0.789,0.597,0.275,0.062
Vietnam,VNM,Asia,East Asia & Pacific,108.2772,14.0583,2019,5.353,0.718,1.253,0.819,0.651,0.136,0.090
Indonesia,IDN,Asia,East Asia & Pacific,113.9213,-0.7893,2019,5.286,0.892,1.155,0.610,0.568,0.543,0.038
Ivory Coast,CIV,Africa,Sub-Saharan Africa,-5.5471,7.5400,2019,5.233,0.537,0.800,0.155,0.397,0.170,0.093
Benin,BEN,Africa,Sub-Saharan Africa,2.3158,9.3077,2019,5.216,0.366,0.352,0.328,0.406,0.197,0.126
Maldives,MDV,Asia,South Asia,73.2207,3.2028,2019,5.198,0.938,1.402,0.914,0.548,0.224,0.072
Congo (Brazzaville),COG,Africa,Sub-Saharan Africa,15.8277,-0.2280,2019,5.194,0.634,0.758,0.458,0.387,0.117,0.119
Azerbaijan,AZE,Asia,Europe & Central Asia,47.5769,40.1431,2019,5.165,0.990,1.181,0.731,0.468,0.040,0.247
Macedonia,MKD,Europe,Europe & Central Asia,21.7453,41.6086,2019,5.160,0.935,1.183,0.803,0.410,0.186,0.025
Ghana,GHA,Africa,Sub-Saharan Africa,-1.0232,7.9465,2019,5.148,0.576,0.966,0.432,0.477,0.261,0.057
Nepal,NPL,Asia,South Asia,84.1240,28.3949,2019,5.137,0.444,1.101,0.669,0.481,0.301,0.128
Turkey,TUR,Asia,Europe & Central Asia,35.2433,38.9637,2019,5.132,1.127,1.197,0.781,0.254,0.086,0.121
China,CHN,Asia,East Asia & Pacific,104.1954,35.8617,2019,5.124,0.991,1.132,0.867,0.602,0.079,0.117
Turkmenistan,TKM,Asia,Europe & Central Asia,59.5563,38.9697,2019,5.119,1.009,1.510,0.612,0.515,0.323,0.034
Bulgaria,BGR,Europe,Europe & Central Asia,25.4858,42.7339,2019,5.102,1.047,1.461,0.778,0.418,0.104,0.000
Morocco,MAR,Africa,Middle East & North Africa,-7.0926,31.7917,2019,5.095,0.759,0.645,0.745,0.450,0.040,0.077
Cameroon,CMR,Africa,Sub-Saharan Africa,12.3547,7.3697,2019,5.085,0.504,0.900,0.270,0.439,0.198,0.054
Venezuela,VEN,South America,America,-66.5897,6.4238,2019,5.053,0.770,1.349,0.767,0.272,0.087,0.064
Algeria,DZA,Africa,Middle East & North Africa,1.6596,28.0339,2019,5.005,0.944,1.143,0.745,0.084,0.119,0.129
Senegal,SEN,Africa,Sub-Saharan Africa,-14.4524,14.4974,2019,4.981,0.504,0.955,0.518,0.352,0.164,0.082
Guinea,GIN,Africa,Sub-Saharan Africa,-9.6966,9.9456,2019,4.949,0.390,0.751,0.334,0.372,0.249,0.112
Niger,NER,Africa,Sub-Saharan Africa,8.0817,17.6078,2019,4.910,0.108,0.704,0.299,0.435,0.208,0.138
Laos,LAO,Asia,East Asia & Pacific,102.4955,19.8563,2019,4.889,0.715,0.987,0.486,0.612,0.273,0.194
Albania,ALB,Europe,Europe & Central Asia,20.1683,41.1533,2019,4.883,0.907,0.830,0.846,0.462,0.171,0.025
Cambodia,KHM,Asia,East Asia & Pacific,104.9910,12.5657,2019,4.848,0.545,1.071,0.588,0.675,0.233,0.073
Bangladesh,BGD,Asia,South Asia,90.3563,23.6850,2019,4.833,0.556,0.869,0.695,0.604,0.177,0.177
Gabon,GAB,Africa,Sub-Saharan Africa,11.6094,-0.8037,2019,4.829,0.988,1.106,0.523,0.369,0.052,0.056
South Africa,ZAF,Africa,Sub-Saharan Africa,22.9375,-30.5595,2019,4.814,0.902,1.259,0.407,0.435,0.126,0.060
Iraq,IRQ,Asia,Middle East & North Africa,43.6793,33.2232,2019,4.785,0.982,1.011,0.529,0.284,0.153,0.073
Lebanon,LBN,Asia,Middle East & North Africa,35.8623,33.8547,2019,4.772,0.889,1.192,0.789,0.186,0.159,0.022
Burkina Faso,BFA,Africa,Sub-Saharan Africa,-1.5616,12.2383,2019,4.769,0.302,0.929,0.313,0.322,0.186,0.126
Gambia,GMB,Africa,Sub-Saharan Africa,-15.3101,13.4432,2019,4.751,0.257,0.883,0.353,0.403,0.426,0.158
Mali,MLI,Africa,Sub-Saharan Africa,-3.9962,17.5707,2019,4.729,0.352,0.973,0.235,0.378,0.170,0.062
Nigeria,NGA,Africa,Sub-Saharan Africa,8.6753,9.0820,2019,4.724,0.646,0.987,0.168,0.435,0.221,0.048
Armenia,ARM,Asia,Europe & Central Asia,45.0382,40.0691,2019,4.677,0.808,1.035,0.776,0.378,0.107,0.105
Georgia,GEO,Asia,Europe & Central Asia,83.1132,32.9605,2019,4.673,0.847,0.731,0.695,0.485,0.048,0.174
Iran,IRN,Asia,Middle East & North Africa,53.6880,32.4279,2019,4.672,1.029,0.886,0.749,0.301,0.277,0.143
Jordan,JOR,Asia,Middle East & North Africa,36.2384,30.5852,2019,4.633,0.785,1.140,0.778,0.425,0.091,0.152
Mozambique,MOZ,Africa,Sub-Saharan Africa,35.5296,-18.6657,2019,4.624,0.179,0.955,0.324,0.561,0.220,0.163
Kenya,KEN,Africa,Sub-Saharan Africa,37.9062,-0.0236,2019,4.583,0.476,0.905,0.536,0.519,0.394,0.067
Namibia,NAM,Africa,Sub-Saharan Africa,18.4904,-22.9576,2019,4.571,0.840,1.246,0.407,0.445,0.076,0.054
Ukraine,UKR,Europe,Europe & Central Asia,31.1656,48.3794,2019,4.561,0.780,1.321,0.699,0.319,0.179,0.010
Liberia,LBR,Africa,Sub-Saharan Africa,-9.4295,6.4281,2019,4.558,0.174,0.921,0.392,0.406,0.227,0.051
Palestinian Territories,PSE,Asia,Middle East & North Africa,17.2666,42.0944,2019,4.553,0.588,1.195,0.614,0.299,0.092,0.072
Uganda,UGA,Africa,Sub-Saharan Africa,32.2903,1.3733,2019,4.432,0.312,1.052,0.378,0.402,0.265,0.064
Chad,TCD,Africa,Sub-Saharan Africa,18.7322,15.4542,2019,4.423,0.302,0.739,0.109,0.229,0.211,0.086
Tunisia,TUN,Africa,Middle East & North Africa,9.5375,33.8869,2019,4.392,0.875,0.872,0.781,0.236,0.056,0.044
Mauritania,MRT,Africa,Sub-Saharan Africa,-10.9408,21.0079,2019,4.375,0.540,1.113,0.425,0.186,0.129,0.122
Sri Lanka,LKA,Asia,South Asia,80.7718,7.8731,2019,4.327,0.898,1.195,0.792,0.529,0.253,0.049
Congo (Kinshasa),COD,Africa,Sub-Saharan Africa,15.8277,-0.2280,2019,4.311,0.062,0.833,0.277,0.365,0.254,0.081
Swaziland,SWZ,Africa,Sub-Saharan Africa,31.4659,-26.5225,2019,4.308,0.828,1.065,0.216,0.300,0.067,0.147
Myanmar,MMR,Asia,East Asia & Pacific,95.9562,21.9140,2019,4.308,0.678,1.098,0.495,0.597,0.570,0.188
Comoros,COM,Africa,Sub-Saharan Africa,43.8722,-11.8750,2019,4.289,0.416,0.723,0.437,0.181,0.259,0.100
Togo,TGO,Africa,Sub-Saharan Africa,0.8248,8.6195,2019,4.187,0.268,0.548,0.343,0.304,0.201,0.115
Ethiopia,ETH,Africa,Sub-Saharan Africa,40.4897,9.1450,2019,4.186,0.315,1.001,0.484,0.413,0.228,0.117
Madagascar,MDG,Africa,Sub-Saharan Africa,46.8691,-18.7669,2019,4.166,0.245,0.824,0.501,0.193,0.191,0.076
Egypt,EGY,Africa,Middle East & North Africa,30.8025,26.8206,2019,4.151,0.875,0.983,0.597,0.374,0.069,0.095
Sierra Leone,SLE,Africa,Sub-Saharan Africa,-11.7799,8.4606,2019,3.926,0.241,0.748,0.204,0.382,0.258,0.048
Burundi,BDI,Africa,Sub-Saharan Africa,29.9189,-3.3731,2019,3.775,0.000,0.404,0.295,0.275,0.187,0.212
Zambia,ZMB,Africa,Sub-Saharan Africa,27.8493,-13.1339,2019,3.759,0.537,0.896,0.364,0.491,0.251,0.087
Haiti,HTI,North America,America,-72.2852,18.9712,2019,3.721,0.285,0.647,0.374,0.169,0.464,0.162
Lesotho,LSO,Africa,Sub-Saharan Africa,28.2336,-29.6100,2019,3.653,0.455,1.089,0.101,0.409,0.103,0.050
India,IND,Asia,South Asia,78.9629,20.5937,2019,3.573,0.731,0.644,0.541,0.581,0.237,0.106
Malawi,MWI,Africa,Sub-Saharan Africa,34.3015,-13.2543,2019,3.538,0.177,0.530,0.446,0.487,0.213,0.132
Yemen,YEM,Asia,Middle East & North Africa,48.5164,15.5527,2019,3.527,0.393,1.177,0.415,0.244,0.095,0.087
Botswana,BWA,Africa,Sub-Saharan Africa,24.6849,-22.3285,2019,3.479,0.998,1.086,0.494,0.509,0.033,0.102
Tanzania,TZA,Africa,Sub-Saharan Africa,34.8888,-6.3690,2019,3.476,0.457,0.873,0.443,0.509,0.272,0.204
Central African Republic,CAF,Africa,Sub-Saharan Africa,20.9394,6.6111,2019,3.476,0.041,0.000,0.000,0.293,0.254,0.028
Rwanda,RWA,Africa,Sub-Saharan Africa,29.8739,-1.9403,2019,3.312,0.343,0.523,0.572,0.604,0.236,0.486
Zimbabwe,ZWE,Africa,Sub-Saharan Africa,29.1549,-19.0154,2019,3.299,0.426,1.048,0.375,0.377,0.151,0.081
South Sudan,SSD,Africa,Sub-Saharan Africa,31.6000,4.8500,2019,2.817,0.289,0.553,0.209,0.066,0.210,0.111
Afghanistan,AFG,Asia,South Asia,67.7100,33.9391,2019,2.567,0.301,0.356,0.266,0.000,0.135,0.001
Finland,FIN,Europe,Europe & Central Asia,25.7482,61.9241,2018,7.858,,0.962,,0.938,-0.132,0.199
Denmark,DNK,Europe,Europe & Central Asia,9.5018,56.2639,2018,7.649,,0.958,,0.935,0.016,0.151
Switzerland,CHE,Europe,Europe & Central Asia,8.2275,46.8182,2018,7.509,,0.930,,0.926,0.096,0.301
Netherlands,NLD,Europe,Europe & Central Asia,5.2913,52.1326,2018,7.463,,0.939,,0.920,0.156,0.371
Norway,NOR,Europe,Europe & Central Asia,8.4689,60.4720,2018,7.444,,0.966,,0.960,0.076,0.268
Austria,AUT,Europe,Europe & Central Asia,14.5501,47.5162,2018,7.396,,0.912,,0.904,0.052,0.523
Sweden,SWE,Europe,Europe & Central Asia,18.6435,60.1282,2018,7.375,,0.931,,0.942,0.070,0.263
New Zealand,NZL,Oceania,East Asia & Pacific,174.8860,-40.9006,2018,7.370,,0.954,,0.949,0.117,0.207
Luxembourg,LUX,Europe,Europe & Central Asia,6.1296,49.8153,2018,7.243,,0.902,,0.884,-0.025,0.385
United Kingdom,GBR,Europe,Europe & Central Asia,-1.4360,52.3781,2018,7.233,,0.928,,0.838,0.222,0.404
Australia,AUS,Oceania,East Asia & Pacific,133.7751,-25.2744,2018,7.177,,0.940,,0.916,0.138,0.405
Canada,CAN,North America,America,-106.3468,56.1304,2018,7.175,,0.923,,0.946,0.098,0.372
Costa Rica,CRI,North America,America,-83.7534,9.7489,2018,7.141,,0.876,,0.942,-0.104,0.781
Germany,DEU,Europe,Europe & Central Asia,10.4515,51.1657,2018,7.118,,0.920,,0.877,0.030,0.496
Czech Republic,CZE,Europe,Europe & Central Asia,15.4730,49.8175,2018,7.034,,0.929,,0.790,-0.294,0.851
Ireland,IRL,Europe,Europe & Central Asia,-8.2439,53.4129,2018,6.962,,0.938,,0.861,0.140,0.362
Israel,ISR,Asia,Middle East & North Africa,34.8516,31.0461,2018,6.927,,0.910,,0.725,0.053,0.770
Malta,MLT,Europe,Europe & Central Asia,14.3754,35.9375,2018,6.910,,0.932,,0.927,0.000,0.595
Belgium,BEL,Europe,Europe & Central Asia,4.4699,50.5039,2018,6.892,,0.930,,0.808,-0.127,0.630
United States,USA,North America,America,-95.7129,37.0902,2018,6.883,,0.904,,0.825,0.108,0.710
France,FRA,Europe,Europe & Central Asia,2.2137,46.2276,2018,6.666,,0.921,,0.816,-0.142,0.582
Guatemala,GTM,North America,America,-90.2308,15.7835,2018,6.627,,0.841,,0.910,-0.011,0.765
United Arab Emirates,ARE,Asia,Middle East & North Africa,53.8478,23.4241,2018,6.604,,0.851,,0.944,0.036,0.000
Mexico,MEX,North America,America,-102.5528,23.6345,2018,6.550,,0.858,,0.816,-0.182,0.809
Italy,ITA,Europe,Europe & Central Asia,12.5674,41.8719,2018,6.517,,0.913,,0.650,-0.023,0.888
Spain,ESP,Europe,Europe & Central Asia,-3.7492,40.4637,2018,6.513,,0.910,,0.722,-0.079,0.777
Taiwan Province of China,TWN,Asia,East Asia & Pacific,120.9605,23.6978,2018,6.467,,0.896,,0.741,0.000,0.736
Chile,CHL,South America,America,-71.5430,-35.6751,2018,6.436,,0.890,,0.789,-0.071,0.816
Kosovo,XKK,Europe,Europe & Central Asia,21.1670,42.2400,2018,6.392,,0.822,,0.890,0.000,0.922
Singapore,SGP,Asia,East Asia & Pacific,103.8198,1.3521,2018,6.375,,0.903,,0.916,0.000,0.097
Uruguay,URY,South America,America,-55.7658,-32.5228,2018,6.372,,0.917,,0.876,-0.108,0.683
Saudi Arabia,SAU,Asia,Middle East & North Africa,45.0792,23.8859,2018,6.356,,0.868,,0.855,-0.210,0.000
Lithuania,LTU,Europe,Europe & Central Asia,23.8813,55.1694,2018,6.309,,0.929,,0.699,-0.241,0.852
Panama,PAN,North America,America,-80.7821,8.5380,2018,6.281,,0.904,,0.861,-0.123,0.837
Cyprus,CYP,Europe,Europe & Central Asia,33.4299,35.1264,2018,6.276,,0.826,,0.794,0.000,0.848
El Salvador,SLV,North America,America,-88.8965,13.7942,2018,6.276,,0.824,,0.863,-0.097,0.827
Slovenia,SVN,Europe,Europe & Central Asia,14.9955,46.1512,2018,6.249,,0.941,,0.942,-0.122,0.839
Slovakia,SVK,Europe,Europe & Central Asia,19.6990,48.6690,2018,6.235,,0.922,,0.758,-0.180,0.910
Uzbekistan,UZB,Asia,Europe & Central Asia,64.5853,41.3775,2018,6.205,,0.921,,0.970,0.312,0.520
Brazil,BRA,South America,America,-51.9253,-14.2350,2018,6.191,,0.882,,0.751,-0.126,0.763
Romania,ROU,Europe,Europe & Central Asia,24.9668,45.9432,2018,6.151,,0.818,,0.845,-0.220,0.921
Ecuador,ECU,South America,America,-78.1834,-1.8312,2018,6.128,,0.851,,0.869,-0.104,0.831
Estonia,EST,Europe,Europe & Central Asia,25.0136,58.5953,2018,6.091,,0.933,,0.886,-0.145,0.621
Thailand,THA,Asia,East Asia & Pacific,100.9925,15.8700,2018,6.012,,0.873,,0.905,0.252,0.907
Kazakhstan,KAZ,Asia,Europe & Central Asia,66.9237,48.0196,2018,6.008,,0.937,,0.840,-0.109,0.824
Colombia,COL,South America,America,-74.2973,4.5709,2018,5.984,,0.871,,0.851,-0.155,0.855
Serbia,SRB,Europe,Europe & Central Asia,21.0059,44.0165,2018,5.936,,0.853,,0.740,-0.099,0.864
Portugal,PRT,Europe,Europe & Central Asia,-8.2245,39.3999,2018,5.920,,0.887,,0.877,-0.263,0.880
Bolivia,BOL,South America,America,-63.5887,-16.2902,2018,5.916,,0.827,,0.863,-0.088,0.786
Honduras,HND,North America,America,-86.2419,15.2000,2018,5.908,,0.827,,0.872,0.106,0.804
Latvia,LVA,Europe,Europe & Central Asia,24.6032,56.8796,2018,5.901,,0.913,,0.608,-0.217,0.799
Bosnia and Herzegovina,BIH,Europe,Europe & Central Asia,17.6791,43.9159,2018,5.887,,0.836,,0.659,0.125,0.913
Mauritius,MUS,Africa,Sub-Saharan Africa,57.5522,-20.3484,2018,5.882,,0.909,,0.867,-0.082,0.785
Philippines,PHL,Asia,East Asia & Pacific,121.7740,12.8797,2018,5.869,,0.846,,0.918,-0.113,0.726
South Korea,KOR,Asia,East Asia & Pacific,126.9667,37.5500,2018,5.840,,0.798,,0.600,-0.094,0.797
Benin,BEN,Africa,Sub-Saharan Africa,2.3158,9.3077,2018,5.820,,0.504,,0.713,0.025,0.747
Nicaragua,NIC,North America,America,-85.2072,12.8654,2018,5.819,,0.854,,0.797,0.003,0.713
Japan,JPN,Asia,East Asia & Pacific,138.2529,36.2048,2018,5.794,,0.886,,0.773,-0.273,0.687
Argentina,ARG,South America,America,-63.6167,-38.4161,2018,5.793,,0.900,,0.846,-0.207,0.855
Moldova,MDA,Europe,Europe & Central Asia,28.3699,47.4116,2018,5.682,,0.892,,0.824,-0.034,0.929
Peru,PER,South America,America,-75.0152,-9.1900,2018,5.680,,0.845,,0.830,-0.188,0.906
Montenegro,MNE,Europe,Europe & Central Asia,19.3744,42.7087,2018,5.650,,0.856,,0.626,-0.049,0.769
North Cyprus,CYP,Europe,Europe & Central Asia,33.4299,35.1264,2018,5.608,,0.837,,0.797,0.000,0.614
Croatia,HRV,Europe,Europe & Central Asia,15.2000,45.1000,2018,5.536,,0.910,,0.691,-0.153,0.925
Russia,RUS,Asia,Europe & Central Asia,105.3188,61.5240,2018,5.514,,0.909,,0.729,-0.156,0.865
Libya,LBY,Africa,Middle East & North Africa,17.0000,25.0000,2018,5.494,,0.824,,0.781,0.000,0.646
Congo (Brazzaville),COG,Africa,Sub-Saharan Africa,15.8277,-0.2280,2018,5.490,,0.621,,0.699,-0.125,0.738
Pakistan,PAK,Asia,South Asia,69.3451,30.3753,2018,5.472,,0.685,,0.773,0.054,0.799
Mongolia,MNG,Asia,East Asia & Pacific,103.8467,46.8625,2018,5.465,,0.942,,0.696,0.041,0.849
Dominican Republic,DOM,North America,America,-70.1627,18.7357,2018,5.433,,0.862,,0.867,-0.151,0.762
Greece,GRC,Europe,Europe & Central Asia,21.8243,39.0742,2018,5.409,,0.794,,0.564,-0.336,0.860
Indonesia,IDN,Asia,East Asia & Pacific,113.9213,-0.7893,2018,5.340,,0.809,,0.879,0.499,0.868
Malaysia,MYS,Asia,East Asia & Pacific,101.9758,4.2105,2018,5.339,,0.789,,0.875,0.113,0.894
Kyrgyzstan,KGZ,Asia,Europe & Central Asia,74.7661,41.2044,2018,5.297,,0.898,,0.945,0.288,0.907
Vietnam,VNM,Asia,East Asia & Pacific,108.2772,14.0583,2018,5.296,,0.832,,0.909,-0.039,0.808
Ivory Coast,CIV,Africa,Sub-Saharan Africa,-5.5471,7.5400,2018,5.268,,0.621,,0.713,-0.037,0.791
Nigeria,NGA,Africa,Sub-Saharan Africa,8.6753,9.0820,2018,5.252,,0.741,,0.790,-0.021,0.866
Guinea,GIN,Africa,Sub-Saharan Africa,-9.6966,9.9456,2018,5.252,,0.630,,0.731,0.100,0.778
Cameroon,CMR,Africa,Sub-Saharan Africa,12.3547,7.3697,2018,5.251,,0.677,,0.816,0.033,0.884
Macedonia,MKD,Europe,Europe & Central Asia,21.7453,41.6086,2018,5.240,,0.849,,0.745,-0.040,0.910
Belarus,BLR,Europe,Europe & Central Asia,27.9534,53.7098,2018,5.234,,0.905,,0.644,-0.182,0.718
Turkey,TUR,Asia,Europe & Central Asia,35.2433,38.9637,2018,5.186,,0.847,,0.529,-0.182,0.805
Azerbaijan,AZE,Asia,Europe & Central Asia,47.5769,40.1431,2018,5.168,,0.781,,0.772,-0.252,0.561
Lebanon,LBN,Asia,Middle East & North Africa,35.8623,33.8547,2018,5.167,,0.829,,0.607,-0.066,0.907
Niger,NER,Africa,Sub-Saharan Africa,8.0817,17.6078,2018,5.164,,0.612,,0.791,0.023,0.637
China,CHN,Asia,East Asia & Pacific,104.1954,35.8617,2018,5.131,,0.788,,0.895,-0.175,0.000
Cambodia,KHM,Asia,East Asia & Pacific,104.9910,12.5657,2018,5.122,,0.795,,0.958,0.034,0.000
Bulgaria,BGR,Europe,Europe & Central Asia,25.4858,42.7339,2018,5.099,,0.924,,0.724,-0.179,0.952
Armenia,ARM,Asia,Europe & Central Asia,45.0382,40.0691,2018,5.062,,0.814,,0.808,-0.149,0.677
Algeria,DZA,Africa,Middle East & North Africa,1.6596,28.0339,2018,5.043,,0.799,,0.583,-0.172,0.759
Venezuela,VEN,South America,America,-66.5897,6.4238,2018,5.006,,0.887,,0.611,-0.176,0.828
Albania,ALB,Europe,Europe & Central Asia,20.1683,41.1533,2018,5.004,,0.684,,0.824,0.005,0.899
Burkina Faso,BFA,Africa,Sub-Saharan Africa,-1.5616,12.2383,2018,4.927,,0.665,,0.721,-0.004,0.757
Gambia,GMB,Africa,Sub-Saharan Africa,-15.3101,13.4432,2018,4.922,,0.685,,0.719,0.000,0.691
Nepal,NPL,Asia,South Asia,84.1240,28.3949,2018,4.910,,0.768,,0.770,0.133,0.742
Morocco,MAR,Africa,Middle East & North Africa,-7.0926,31.7917,2018,4.897,,0.554,,0.773,-0.246,0.843
South Africa,ZAF,Africa,Sub-Saharan Africa,22.9375,-30.5595,2018,4.884,,0.841,,0.753,-0.059,0.841
Laos,LAO,Asia,East Asia & Pacific,102.4955,19.8563,2018,4.859,,0.705,,0.907,0.141,0.634
Namibia,NAM,Africa,Sub-Saharan Africa,18.4904,-22.9576,2018,4.834,,0.864,,0.754,-0.176,0.846
Gabon,GAB,Africa,Sub-Saharan Africa,11.6094,-0.8037,2018,4.783,,0.785,,0.719,-0.217,0.823
Senegal,SEN,Africa,Sub-Saharan Africa,-14.4524,14.4974,2018,4.769,,0.739,,0.629,-0.062,0.805
Tunisia,TUN,Africa,Middle East & North Africa,9.5375,33.8869,2018,4.741,,0.733,,0.650,-0.203,0.840
Ukraine,UKR,Europe,Europe & Central Asia,31.1656,48.3794,2018,4.662,,0.901,,0.663,-0.055,0.943
Georgia,GEO,Asia,Europe & Central Asia,83.1132,32.9605,2018,4.659,,0.617,,0.775,-0.219,0.755
Kenya,KEN,Africa,Sub-Saharan Africa,37.9062,-0.0236,2018,4.656,,0.707,,0.821,0.307,0.844
Mozambique,MOZ,Africa,Sub-Saharan Africa,35.5296,-18.6657,2018,4.654,,0.738,,0.897,0.054,0.691
Jordan,JOR,Asia,Middle East & North Africa,36.2384,30.5852,2018,4.639,,0.800,,0.762,-0.183,0.000
Turkmenistan,TKM,Asia,Europe & Central Asia,59.5563,38.9697,2018,4.621,,0.984,,0.858,0.237,0.000
Palestinian Territories,PSE,Asia,Middle East & North Africa,17.2666,42.0944,2018,4.554,,0.819,,0.655,0.000,0.814
Bangladesh,BGD,Asia,South Asia,90.3563,23.6850,2018,4.499,,0.706,,0.901,-0.038,0.701
Chad,TCD,Africa,Sub-Saharan Africa,18.7322,15.4542,2018,4.486,,0.577,,0.650,0.011,0.763
Mali,MLI,Africa,Sub-Saharan Africa,-3.9962,17.5707,2018,4.416,,0.692,,0.737,-0.032,0.793
Myanmar,MMR,Asia,East Asia & Pacific,95.9562,21.9140,2018,4.411,,0.774,,0.906,0.470,0.647
Sri Lanka,LKA,Asia,South Asia,80.7718,7.8731,2018,4.400,,0.828,,0.853,0.087,0.858
Ethiopia,ETH,Africa,Sub-Saharan Africa,40.4897,9.1450,2018,4.379,,0.740,,0.740,0.043,0.799
Uganda,UGA,Africa,Sub-Saharan Africa,32.2903,1.3733,2018,4.322,,0.740,,0.729,0.088,0.856
Mauritania,MRT,Africa,Sub-Saharan Africa,-10.9408,21.0079,2018,4.314,,0.802,,0.467,-0.095,0.711
Sierra Leone,SLE,Africa,Sub-Saharan Africa,-11.7799,8.4606,2018,4.306,,0.650,,0.716,0.102,0.856
Iran,IRN,Asia,Middle East & North Africa,53.6880,32.4279,2018,4.278,,0.674,,0.603,0.045,0.703
Swaziland,SWZ,Africa,Sub-Saharan Africa,31.4659,-26.5225,2018,4.212,,0.779,,0.710,-0.180,0.692
Liberia,LBR,Africa,Sub-Saharan Africa,-9.4295,6.4281,2018,4.135,,0.727,,0.766,0.096,0.868
Madagascar,MDG,Africa,Sub-Saharan Africa,46.8691,-18.7669,2018,4.071,,0.666,,0.551,0.006,0.889
Zambia,ZMB,Africa,Sub-Saharan Africa,27.8493,-13.1339,2018,4.041,,0.718,,0.791,0.037,0.811
Togo,TGO,Africa,Sub-Saharan Africa,0.8248,8.6195,2018,4.023,,0.596,,0.612,-0.007,0.809
Egypt,EGY,Africa,Middle East & North Africa,30.8025,26.8206,2018,4.005,,0.759,,0.682,-0.223,0.000
Comoros,COM,Africa,Sub-Saharan Africa,43.8722,-11.8750,2018,3.973,,0.621,,0.560,0.136,0.794
India,IND,Asia,South Asia,78.9629,20.5937,2018,3.818,,0.638,,0.890,0.072,0.805
Burundi,BDI,Africa,Sub-Saharan Africa,29.9189,-3.3731,2018,3.775,,0.485,,0.646,-0.019,0.599
Zimbabwe,ZWE,Africa,Sub-Saharan Africa,29.1549,-19.0154,2018,3.616,,0.775,,0.763,-0.038,0.844
Haiti,HTI,North America,America,-72.2852,18.9712,2018,3.615,,0.538,,0.591,0.421,0.720
Rwanda,RWA,Africa,Sub-Saharan Africa,29.8739,-1.9403,2018,3.561,,0.616,,0.924,0.057,0.164
Botswana,BWA,Africa,Sub-Saharan Africa,24.6849,-22.3285,2018,3.461,,0.795,,0.818,-0.259,0.807
Tanzania,TZA,Africa,Sub-Saharan Africa,34.8888,-6.3690,2018,3.445,,0.675,,0.807,0.142,0.612
Malawi,MWI,Africa,Sub-Saharan Africa,34.3015,-13.2543,2018,3.335,,0.528,,0.799,0.065,0.766
Yemen,YEM,Asia,Middle East & North Africa,48.5164,15.5527,2018,3.058,,0.789,,0.553,0.000,0.793
Afghanistan,AFG,Asia,South Asia,67.7100,33.9391,2018,2.694,,0.508,,0.374,-0.085,0.928
Finland,FIN,Europe,Europe & Central Asia,25.7482,61.9241,2017,7.788,,0.964,,0.962,-0.006,0.192
Denmark,DNK,Europe,Europe & Central Asia,9.5018,56.2639,2017,7.594,,0.952,,0.955,0.152,0.181
Norway,NOR,Europe,Europe & Central Asia,8.4689,60.4720,2017,7.579,,0.950,,0.953,0.218,0.250
Iceland,ISL,Europe,Europe & Central Asia,-19.0208,64.9631,2017,7.476,,0.967,,0.939,0.243,0.727
Switzerland,CHE,Europe,Europe & Central Asia,8.2275,46.8182,2017,7.474,,0.950,,0.925,0.175,0.316
Netherlands,NLD,Europe,Europe & Central Asia,5.2913,52.1326,2017,7.459,,0.937,,0.920,0.245,0.363
Canada,CAN,North America,America,-106.3468,56.1304,2017,7.415,,0.934,,0.945,0.155,0.362
Israel,ISR,Asia,Middle East & North Africa,34.8516,31.0461,2017,7.331,,0.916,,0.768,0.143,0.793
New Zealand,NZL,Oceania,East Asia & Pacific,174.8860,-40.9006,2017,7.327,,0.955,,0.942,0.290,0.222
Austria,AUT,Europe,Europe & Central Asia,14.5501,47.5162,2017,7.294,,0.906,,0.890,0.131,0.518
Sweden,SWE,Europe,Europe & Central Asia,18.6435,60.1282,2017,7.287,,0.914,,0.935,0.163,0.239
Australia,AUS,Oceania,East Asia & Pacific,133.7751,-25.2744,2017,7.257,,0.950,,0.911,0.309,0.411
Costa Rica,CRI,North America,America,-83.7534,9.7489,2017,7.225,,0.922,,0.936,-0.073,0.742
United Kingdom,GBR,Europe,Europe & Central Asia,-1.4360,52.3781,2017,7.103,,0.937,,0.813,0.287,0.419
Germany,DEU,Europe,Europe & Central Asia,10.4515,51.1657,2017,7.074,,0.892,,0.841,0.141,0.414
Luxembourg,LUX,Europe,Europe & Central Asia,6.1296,49.8153,2017,7.061,,0.905,,0.903,0.040,0.330
Ireland,IRL,Europe,Europe & Central Asia,-8.2439,53.4129,2017,7.060,,0.943,,0.905,0.211,0.337
United Arab Emirates,ARE,Asia,Middle East & North Africa,53.8478,23.4241,2017,7.039,,0.836,,0.962,0.199,0.000
United States,USA,North America,America,-95.7129,37.0902,2017,6.992,,0.921,,0.868,0.189,0.681
Belgium,BEL,Europe,Europe & Central Asia,4.4699,50.5039,2017,6.928,,0.922,,0.857,0.052,0.543
Czech Republic,CZE,Europe,Europe & Central Asia,15.4730,49.8175,2017,6.790,,0.901,,0.832,-0.179,0.867
Malta,MLT,Europe,Europe & Central Asia,14.3754,35.9375,2017,6.676,,0.937,,0.924,0.248,0.690
France,FRA,Europe,Europe & Central Asia,2.2137,46.2276,2017,6.635,,0.931,,0.834,-0.127,0.601
Panama,PAN,North America,America,-80.7821,8.5380,2017,6.568,,0.912,,0.900,-0.160,0.841
Nicaragua,NIC,North America,America,-85.2072,12.8654,2017,6.476,,0.838,,0.922,0.010,0.673
Uzbekistan,UZB,Asia,Europe & Central Asia,64.5853,41.3775,2017,6.421,,0.942,,0.985,0.117,0.465
Mexico,MEX,North America,America,-102.5528,23.6345,2017,6.410,,0.800,,0.861,-0.204,0.801
Singapore,SGP,Asia,East Asia & Pacific,103.8198,1.3521,2017,6.378,,0.897,,0.926,0.126,0.162
Slovakia,SVK,Europe,Europe & Central Asia,19.6990,48.6690,2017,6.366,,0.913,,0.714,-0.067,0.920
Taiwan Province of China,TWN,Asia,East Asia & Pacific,120.9605,23.6978,2017,6.359,,0.891,,0.760,0.000,0.743
El Salvador,SLV,North America,America,-88.8965,13.7942,2017,6.339,,0.829,,0.758,-0.171,0.778
Uruguay,URY,South America,America,-55.7658,-32.5228,2017,6.336,,0.914,,0.898,-0.101,0.627
Brazil,BRA,South America,America,-51.9253,-14.2350,2017,6.333,,0.905,,0.765,-0.185,0.794
Guatemala,GTM,North America,America,-90.2308,15.7835,2017,6.325,,0.826,,0.915,-0.060,0.800
Chile,CHL,South America,America,-71.5430,-35.6751,2017,6.320,,0.880,,0.790,-0.030,0.836
Saudi Arabia,SAU,Asia,Middle East & North Africa,45.0792,23.8859,2017,6.294,,0.840,,0.814,-0.149,0.000
Lithuania,LTU,Europe,Europe & Central Asia,23.8813,55.1694,2017,6.273,,0.926,,0.749,-0.178,0.790
Spain,ESP,Europe,Europe & Central Asia,-3.7492,40.4637,2017,6.230,,0.903,,0.756,-0.036,0.791
Bahrain,BHR,Asia,Middle East & North Africa,50.6378,25.9304,2017,6.227,,0.876,,0.906,0.128,0.000
Poland,POL,Europe,Europe & Central Asia,19.1451,51.9194,2017,6.201,,0.882,,0.831,-0.128,0.000
Italy,ITA,Europe,Europe & Central Asia,12.5674,41.8719,2017,6.199,,0.920,,0.633,-0.037,0.867
Trinidad and Tobago,TTO,North America,America,-61.2225,10.6918,2017,6.192,,0.916,,0.859,-0.005,0.911
Mauritius,MUS,Africa,Sub-Saharan Africa,57.5522,-20.3484,2017,6.174,,0.910,,0.912,0.078,0.818
Slovenia,SVN,Europe,Europe & Central Asia,14.9955,46.1512,2017,6.167,,0.928,,0.921,-0.028,0.829
Colombia,COL,South America,America,-74.2973,4.5709,2017,6.157,,0.909,,0.838,-0.163,0.875
Kosovo,XKK,Europe,Europe & Central Asia,21.1670,42.2400,2017,6.149,,0.792,,0.858,0.112,0.925
Kuwait,KWT,Asia,Middle East & North Africa,47.4818,29.3117,2017,6.094,,0.853,,0.884,-0.039,0.000
Romania,ROU,Europe,Europe & Central Asia,24.9668,45.9432,2017,6.090,,0.811,,0.839,-0.162,0.926
Hungary,HUN,Europe,Europe & Central Asia,19.5033,47.1625,2017,6.065,,0.877,,0.661,-0.146,0.886
Cyprus,CYP,Europe,Europe & Central Asia,33.4299,35.1264,2017,6.062,,0.819,,0.812,0.040,0.851
Argentina,ARG,South America,America,-63.6167,-38.4161,2017,6.039,,0.907,,0.832,-0.183,0.841
Honduras,HND,North America,America,-86.2419,15.2000,2017,6.020,,0.843,,0.898,0.079,0.783
Latvia,LVA,Europe,Europe & Central Asia,24.6032,56.8796,2017,5.978,,0.895,,0.700,-0.159,0.798
Thailand,THA,Asia,East Asia & Pacific,100.9925,15.8700,2017,5.939,,0.877,,0.923,0.205,0.884
Estonia,EST,Europe,Europe & Central Asia,25.0136,58.5953,2017,5.938,,0.936,,0.862,-0.105,0.668
Japan,JPN,Asia,East Asia & Pacific,138.2529,36.2048,2017,5.911,,0.882,,0.849,-0.217,0.659
Jamaica,JAM,North America,America,-77.2975,18.1096,2017,5.890,,0.913,,0.861,-0.128,0.883
Kazakhstan,KAZ,Asia,Europe & Central Asia,66.9237,48.0196,2017,5.882,,0.914,,0.745,-0.046,0.755
South Korea,KOR,Asia,East Asia & Pacific,126.9667,37.5500,2017,5.874,,0.807,,0.538,0.009,0.851
Ecuador,ECU,South America,America,-78.1834,-1.8312,2017,5.840,,0.849,,0.879,-0.171,0.734
Pakistan,PAK,Asia,South Asia,69.3451,30.3753,2017,5.831,,0.690,,0.713,0.030,0.714
Tajikistan,TJK,Asia,Europe & Central Asia,71.2761,38.8610,2017,5.829,,0.663,,0.832,0.122,0.718
Paraguay,PRY,South America,America,-58.4438,-23.4425,2017,5.713,,0.902,,0.891,0.018,0.810
Portugal,PRT,Europe,Europe & Central Asia,-8.2245,39.3999,2017,5.711,,0.900,,0.905,-0.177,0.881
Peru,PER,South America,America,-75.0152,-9.1900,2017,5.711,,0.830,,0.827,-0.164,0.895
Bolivia,BOL,South America,America,-63.5887,-16.2902,2017,5.651,,0.779,,0.884,-0.115,0.819
Libya,LBY,Africa,Middle East & North Africa,17.0000,25.0000,2017,5.647,,0.823,,0.779,-0.053,0.673
Kyrgyzstan,KGZ,Asia,Europe & Central Asia,74.7661,41.2044,2017,5.630,,0.883,,0.859,0.164,0.874
Montenegro,MNE,Europe,Europe & Central Asia,19.3744,42.7087,2017,5.615,,0.881,,0.626,-0.082,0.756
Turkey,TUR,Asia,Europe & Central Asia,35.2433,38.9637,2017,5.607,,0.876,,0.644,-0.243,0.671
Dominican Republic,DOM,North America,America,-70.1627,18.7357,2017,5.605,,0.894,,0.855,-0.123,0.760
Philippines,PHL,Asia,East Asia & Pacific,121.7740,12.8797,2017,5.594,,0.851,,0.926,-0.146,0.711
Russia,RUS,Asia,Europe & Central Asia,105.3188,61.5240,2017,5.579,,0.896,,0.731,-0.155,0.862
Belarus,BLR,Europe,Europe & Central Asia,27.9534,53.7098,2017,5.553,,0.900,,0.621,-0.129,0.654
Ghana,GHA,Africa,Sub-Saharan Africa,-1.0232,7.9465,2017,5.481,,0.669,,0.783,0.083,0.839
Hong Kong S.A.R. of China,HKG,Asia,East Asia & Pacific,114.1095,22.3964,2017,5.362,,0.831,,0.831,0.129,0.416
Croatia,HRV,Europe,Europe & Central Asia,15.2000,45.1000,2017,5.343,,0.770,,0.716,-0.106,0.892
Mongolia,MNG,Asia,East Asia & Pacific,103.8467,46.8625,2017,5.334,,0.924,,0.675,0.104,0.865
Moldova,MDA,Europe,Europe & Central Asia,28.3699,47.4116,2017,5.326,,0.831,,0.553,-0.004,0.926
Nigeria,NGA,Africa,Sub-Saharan Africa,8.6753,9.0820,2017,5.322,,0.733,,0.826,0.114,0.835
Morocco,MAR,Africa,Middle East & North Africa,-7.0926,31.7917,2017,5.312,,0.641,,0.814,-0.227,0.841
Algeria,DZA,Africa,Middle East & North Africa,1.6596,28.0339,2017,5.249,,0.807,,0.437,-0.192,0.700
Macedonia,MKD,Europe,Europe & Central Asia,21.7453,41.6086,2017,5.234,,0.800,,0.752,-0.058,0.856
Turkmenistan,TKM,Asia,Europe & Central Asia,59.5563,38.9697,2017,5.229,,0.908,,0.720,0.044,0.000
Vietnam,VNM,Asia,East Asia & Pacific,108.2772,14.0583,2017,5.175,,0.000,,0.000,0.000,0.000
Lebanon,LBN,Asia,Middle East & North Africa,35.8623,33.8547,2017,5.154,,0.777,,0.605,-0.073,0.911
Azerbaijan,AZE,Asia,Europe & Central Asia,47.5769,40.1431,2017,5.152,,0.787,,0.731,-0.245,0.653
Greece,GRC,Europe,Europe & Central Asia,21.8243,39.0742,2017,5.148,,0.753,,0.438,-0.291,0.872
Serbia,SRB,Europe,Europe & Central Asia,21.0059,44.0165,2017,5.122,,0.884,,0.685,-0.077,0.851
China,CHN,Asia,East Asia & Pacific,104.1954,35.8617,2017,5.099,,0.772,,0.878,-0.191,0.000
Indonesia,IDN,Asia,East Asia & Pacific,113.9213,-0.7893,2017,5.098,,0.796,,0.865,0.475,0.900
Bulgaria,BGR,Europe,Europe & Central Asia,25.4858,42.7339,2017,5.097,,0.942,,0.689,-0.156,0.911
Bosnia and Herzegovina,BIH,Europe,Europe & Central Asia,17.6791,43.9159,2017,5.090,,0.775,,0.564,0.092,0.923
Cameroon,CMR,Africa,Sub-Saharan Africa,12.3547,7.3697,2017,5.074,,0.695,,0.767,-0.032,0.844
Venezuela,VEN,South America,America,-66.5897,6.4238,2017,5.071,,0.896,,0.636,-0.206,0.844
Ivory Coast,CIV,Africa,Sub-Saharan Africa,-5.5471,7.5400,2017,5.038,,0.661,,0.732,-0.097,0.771
Congo (Brazzaville),COG,Africa,Sub-Saharan Africa,15.8277,-0.2280,2017,4.884,,0.655,,0.778,-0.164,0.763
Guinea,GIN,Africa,Sub-Saharan Africa,-9.6966,9.9456,2017,4.874,,0.634,,0.738,0.046,0.750
Benin,BEN,Africa,Sub-Saharan Africa,2.3158,9.3077,2017,4.853,,0.436,,0.727,-0.043,0.767
Jordan,JOR,Asia,Middle East & North Africa,36.2384,30.5852,2017,4.808,,0.815,,0.766,-0.150,0.000
Gabon,GAB,Africa,Sub-Saharan Africa,11.6094,-0.8037,2017,4.782,,0.807,,0.652,-0.247,0.868
Mali,MLI,Africa,Sub-Saharan Africa,-3.9962,17.5707,2017,4.742,,0.741,,0.753,-0.067,0.863
Nepal,NPL,Asia,South Asia,84.1240,28.3949,2017,4.737,,0.816,,0.845,0.145,0.770
Iran,IRN,Asia,Middle East & North Africa,53.6880,32.4279,2017,4.717,,0.714,,0.731,0.187,0.715
Senegal,SEN,Africa,Sub-Saharan Africa,-14.4524,14.4974,2017,4.683,,0.744,,0.687,-0.031,0.825
Mauritania,MRT,Africa,Sub-Saharan Africa,-10.9408,21.0079,2017,4.678,,0.779,,0.527,-0.136,0.777
Burkina Faso,BFA,Africa,Sub-Saharan Africa,-1.5616,12.2383,2017,4.647,,0.785,,0.614,-0.055,0.727
Albania,ALB,Europe,Europe & Central Asia,20.1683,41.1533,2017,4.640,,0.638,,0.750,-0.033,0.876
Palestinian Territories,PSE,Asia,Middle East & North Africa,17.2666,42.0944,2017,4.628,,0.824,,0.632,0.000,0.831
Laos,LAO,Asia,East Asia & Pacific,102.4955,19.8563,2017,4.623,,0.707,,0.891,0.073,0.592
Niger,NER,Africa,Sub-Saharan Africa,8.0817,17.6078,2017,4.616,,0.582,,0.684,-0.017,0.778
Cambodia,KHM,Asia,East Asia & Pacific,104.9910,12.5657,2017,4.586,,0.765,,0.964,0.086,0.821
Chad,TCD,Africa,Sub-Saharan Africa,18.7322,15.4542,2017,4.559,,0.661,,0.615,-0.005,0.792
South Africa,ZAF,Africa,Sub-Saharan Africa,22.9375,-30.5595,2017,4.514,,0.870,,0.787,-0.137,0.865
Kenya,KEN,Africa,Sub-Saharan Africa,37.9062,-0.0236,2017,4.476,,0.715,,0.853,0.249,0.854
Iraq,IRQ,Asia,Middle East & North Africa,43.6793,33.2232,2017,4.462,,0.695,,0.628,-0.038,0.757
Georgia,GEO,Asia,Europe & Central Asia,83.1132,32.9605,2017,4.451,,0.590,,0.821,-0.231,0.590
Namibia,NAM,Africa,Sub-Saharan Africa,18.4904,-22.9576,2017,4.441,,0.828,,0.810,-0.197,0.831
Liberia,LBR,Africa,Sub-Saharan Africa,-9.4295,6.4281,2017,4.424,,0.685,,0.733,0.035,0.867
Togo,TGO,Africa,Sub-Saharan Africa,0.8248,8.6195,2017,4.361,,0.508,,0.717,-0.042,0.726
Sri Lanka,LKA,Asia,South Asia,80.7718,7.8731,2017,4.331,,0.823,,0.827,0.088,0.844
Ukraine,UKR,Europe,Europe & Central Asia,31.1656,48.3794,2017,4.311,,0.858,,0.599,0.017,0.937
Congo (Kinshasa),COD,Africa,Sub-Saharan Africa,15.8277,-0.2280,2017,4.311,,0.670,,0.704,0.085,0.809
Bangladesh,BGD,Asia,South Asia,90.3563,23.6850,2017,4.310,,0.713,,0.896,0.016,0.635
Armenia,ARM,Asia,Europe & Central Asia,45.0382,40.0691,2017,4.288,,0.698,,0.614,-0.134,0.865
Mozambique,MOZ,Africa,Sub-Saharan Africa,35.5296,-18.6657,2017,4.280,,0.678,,0.823,-0.025,0.682
Ethiopia,ETH,Africa,Sub-Saharan Africa,40.4897,9.1450,2017,4.180,,0.734,,0.717,0.008,0.757
Myanmar,MMR,Asia,East Asia & Pacific,95.9562,21.9140,2017,4.154,,0.795,,0.886,0.630,0.619
Tunisia,TUN,Africa,Middle East & North Africa,9.5375,33.8869,2017,4.124,,0.717,,0.478,-0.231,0.869
Gambia,GMB,Africa,Sub-Saharan Africa,-15.3101,13.4432,2017,4.118,,0.697,,0.812,0.126,0.572
Sierra Leone,SLE,Africa,Sub-Saharan Africa,-11.7799,8.4606,2017,4.090,,0.652,,0.711,0.087,0.848
Madagascar,MDG,Africa,Sub-Saharan Africa,46.8691,-18.7669,2017,4.079,,0.626,,0.570,-0.030,0.847
India,IND,Asia,South Asia,78.9629,20.5937,2017,4.046,,0.607,,0.886,-0.054,0.781
Uganda,UGA,Africa,Sub-Saharan Africa,32.2903,1.3733,2017,4.001,,0.740,,0.772,0.069,0.816
Zambia,ZMB,Africa,Sub-Saharan Africa,27.8493,-13.1339,2017,3.933,,0.744,,0.823,0.129,0.740
Egypt,EGY,Africa,Middle East & North Africa,30.8025,26.8206,2017,3.929,,0.638,,0.593,-0.160,0.000
Haiti,HTI,North America,America,-72.2852,18.9712,2017,3.824,,0.647,,0.484,0.381,0.647
Lesotho,LSO,Africa,Sub-Saharan Africa,28.2336,-29.6100,2017,3.795,,0.769,,0.757,-0.153,0.797
Zimbabwe,ZWE,Africa,Sub-Saharan Africa,29.1549,-19.0154,2017,3.638,,0.754,,0.753,-0.070,0.751
Botswana,BWA,Africa,Sub-Saharan Africa,24.6849,-22.3285,2017,3.505,,0.768,,0.817,-0.253,0.731
Central African Republic,CAF,Africa,Sub-Saharan Africa,20.9394,6.6111,2017,3.476,,0.320,,0.645,0.094,0.890
Malawi,MWI,Africa,Sub-Saharan Africa,34.3015,-13.2543,2017,3.417,,0.555,,0.848,0.017,0.735
Tanzania,TZA,Africa,Sub-Saharan Africa,34.8888,-6.3690,2017,3.347,,0.705,,0.800,0.105,0.654
Yemen,YEM,Asia,Middle East & North Africa,48.5164,15.5527,2017,3.254,,0.790,,0.595,0.000,0.000
Rwanda,RWA,Africa,Sub-Saharan Africa,29.8739,-1.9403,2017,3.108,,0.517,,0.908,0.051,0.214
South Sudan,SSD,Africa,Sub-Saharan Africa,31.6000,4.8500,2017,2.817,,0.557,,0.456,0.000,0.761
Afghanistan,AFG,Asia,South Asia,67.7100,33.9391,2017,2.662,,0.491,,0.427,-0.112,0.954
Finland,FIN,Europe,Europe & Central Asia,25.7482,61.9241,2016,7.660,,0.954,,0.948,-0.031,0.250
Norway,NOR,Europe,Europe & Central Asia,8.4689,60.4720,2016,7.596,,0.960,,0.954,0.114,0.410
Denmark,DNK,Europe,Europe & Central Asia,9.5018,56.2639,2016,7.558,,0.954,,0.948,0.135,0.210
Netherlands,NLD,Europe,Europe & Central Asia,5.2913,52.1326,2016,7.541,,0.926,,0.907,0.233,0.433
Iceland,ISL,Europe,Europe & Central Asia,-19.0208,64.9631,2016,7.510,,0.985,,0.952,0.278,0.719
Switzerland,CHE,Europe,Europe & Central Asia,8.2275,46.8182,2016,7.459,,0.928,,0.934,0.083,0.302
Sweden,SWE,Europe,Europe & Central Asia,18.6435,60.1282,2016,7.369,,0.912,,0.918,0.139,0.246
Australia,AUS,Oceania,East Asia & Pacific,133.7751,-25.2744,2016,7.250,,0.942,,0.922,0.230,0.399
Canada,CAN,North America,America,-106.3468,56.1304,2016,7.245,,0.924,,0.912,0.203,0.385
New Zealand,NZL,Oceania,East Asia & Pacific,174.8860,-40.9006,2016,7.226,,0.937,,0.927,0.261,0.278
Israel,ISR,Asia,Middle East & North Africa,34.8516,31.0461,2016,7.159,,0.890,,0.772,0.151,0.804
Costa Rica,CRI,North America,America,-83.7534,9.7489,2016,7.136,,0.901,,0.873,-0.030,0.781
Austria,AUT,Europe,Europe & Central Asia,14.5501,47.5162,2016,7.048,,0.926,,0.889,0.078,0.524
Ireland,IRL,Europe,Europe & Central Asia,-8.2439,53.4129,2016,7.041,,0.958,,0.875,0.168,0.399
Luxembourg,LUX,Europe,Europe & Central Asia,6.1296,49.8153,2016,6.967,,0.941,,0.882,0.014,0.356
Belgium,BEL,Europe,Europe & Central Asia,4.4699,50.5039,2016,6.949,,0.929,,0.866,-0.058,0.497
Germany,DEU,Europe,Europe & Central Asia,10.4515,51.1657,2016,6.874,,0.906,,0.871,0.144,0.446
United Arab Emirates,ARE,Asia,Middle East & North Africa,53.8478,23.4241,2016,6.831,,0.849,,0.949,0.113,0.000
United Kingdom,GBR,Europe,Europe & Central Asia,-1.4360,52.3781,2016,6.824,,0.954,,0.821,0.246,0.458
Mexico,MEX,North America,America,-102.5528,23.6345,2016,6.824,,0.893,,0.752,-0.156,0.809
United States,USA,North America,America,-95.7129,37.0902,2016,6.804,,0.897,,0.758,0.136,0.739
Czech Republic,CZE,Europe,Europe & Central Asia,15.4730,49.8175,2016,6.736,,0.931,,0.850,-0.200,0.900
Malta,MLT,Europe,Europe & Central Asia,14.3754,35.9375,2016,6.591,,0.930,,0.916,0.341,0.696
Chile,CHL,South America,America,-71.5430,-35.6751,2016,6.579,,0.841,,0.652,0.093,0.858
Taiwan Province of China,TWN,Asia,East Asia & Pacific,120.9605,23.6978,2016,6.513,,0.895,,0.719,0.000,0.811
France,FRA,Europe,Europe & Central Asia,2.2137,46.2276,2016,6.475,,0.885,,0.787,-0.096,0.623
Saudi Arabia,SAU,Asia,Middle East & North Africa,45.0792,23.8859,2016,6.474,,0.890,,0.774,-0.150,0.000
Argentina,ARG,South America,America,-63.6167,-38.4161,2016,6.427,,0.883,,0.848,-0.188,0.851
Brazil,BRA,South America,America,-51.9253,-14.2350,2016,6.375,,0.912,,0.807,-0.110,0.781
Guatemala,GTM,North America,America,-90.2308,15.7835,2016,6.359,,0.811,,0.863,0.010,0.812
Spain,ESP,Europe,Europe & Central Asia,-3.7492,40.4637,2016,6.319,,0.942,,0.768,-0.052,0.819
Colombia,COL,South America,America,-74.2973,4.5709,2016,6.234,,0.882,,0.835,-0.105,0.898
Uruguay,URY,South America,America,-55.7658,-32.5228,2016,6.171,,0.900,,0.886,-0.082,0.676
Bahrain,BHR,Asia,Middle East & North Africa,50.6378,25.9304,2016,6.170,,0.863,,0.889,0.080,0.000
Poland,POL,Europe,Europe & Central Asia,19.1451,51.9194,2016,6.162,,0.917,,0.871,-0.097,0.848
El Salvador,SLV,North America,America,-88.8965,13.7942,2016,6.140,,0.794,,0.800,-0.184,0.797
Panama,PAN,North America,America,-80.7821,8.5380,2016,6.118,,0.882,,0.884,-0.093,0.837
Ecuador,ECU,South America,America,-78.1834,-1.8312,2016,6.115,,0.842,,0.846,-0.018,0.774
Thailand,THA,Asia,East Asia & Pacific,100.9925,15.8700,2016,6.074,,0.908,,0.924,0.349,0.878
Singapore,SGP,Asia,East Asia & Pacific,103.8198,1.3521,2016,6.033,,0.925,,0.904,0.133,0.047
Nicaragua,NIC,North America,America,-85.2072,12.8654,2016,6.013,,0.853,,0.717,0.040,0.731
Slovakia,SVK,Europe,Europe & Central Asia,19.6990,48.6690,2016,5.993,,0.945,,0.700,-0.072,0.917
South Korea,KOR,Asia,East Asia & Pacific,126.9667,37.5500,2016,5.971,,0.811,,0.591,0.021,0.862
Romania,ROU,Europe,Europe & Central Asia,24.9668,45.9432,2016,5.969,,0.809,,0.822,-0.117,0.949
Japan,JPN,Asia,East Asia & Pacific,138.2529,36.2048,2016,5.955,,0.900,,0.836,-0.074,0.698
Italy,ITA,Europe,Europe & Central Asia,12.5674,41.8719,2016,5.955,,0.927,,0.624,-0.083,0.903
Kuwait,KWT,Asia,Middle East & North Africa,47.4818,29.3117,2016,5.947,,0.845,,0.841,-0.108,0.000
Latvia,LVA,Europe,Europe & Central Asia,24.6032,56.8796,2016,5.940,,0.917,,0.685,-0.160,0.868
Slovenia,SVN,Europe,Europe & Central Asia,14.9955,46.1512,2016,5.937,,0.934,,0.904,-0.057,0.838
Uzbekistan,UZB,Asia,Europe & Central Asia,64.5853,41.3775,2016,5.893,,0.945,,0.984,0.203,0.000
Turkmenistan,TKM,Asia,Europe & Central Asia,59.5563,38.9697,2016,5.887,,0.929,,0.749,-0.017,0.000
Lithuania,LTU,Europe,Europe & Central Asia,23.8813,55.1694,2016,5.866,,0.938,,0.614,-0.271,0.949
Russia,RUS,Asia,Europe & Central Asia,105.3188,61.5240,2016,5.855,,0.911,,0.714,-0.191,0.925
North Cyprus,CYP,Europe,Europe & Central Asia,33.4299,35.1264,2016,5.827,,0.808,,0.796,0.000,0.670
Paraguay,PRY,South America,America,-58.4438,-23.4425,2016,5.801,,0.940,,0.854,-0.059,0.756
Cyprus,CYP,Europe,Europe & Central Asia,33.4299,35.1264,2016,5.795,,0.786,,0.756,-0.033,0.898
Bolivia,BOL,South America,America,-63.5887,-16.2902,2016,5.770,,0.796,,0.882,-0.042,0.853
Kosovo,XKK,Europe,Europe & Central Asia,21.1670,42.2400,2016,5.759,,0.824,,0.827,0.120,0.941
Serbia,SRB,Europe,Europe & Central Asia,21.0059,44.0165,2016,5.753,,0.895,,0.614,-0.068,0.890
Peru,PER,South America,America,-75.0152,-9.1900,2016,5.701,,0.803,,0.830,-0.143,0.866
Estonia,EST,Europe,Europe & Central Asia,25.0136,58.5953,2016,5.650,,0.938,,0.843,-0.153,0.639
Honduras,HND,North America,America,-86.2419,15.2000,2016,5.648,,0.774,,0.850,0.087,0.793
Mauritius,MUS,Africa,Sub-Saharan Africa,57.5522,-20.3484,2016,5.610,,0.836,,0.819,0.131,0.891
Moldova,MDA,Europe,Europe & Central Asia,28.3699,47.4116,2016,5.578,,0.837,,0.557,0.001,0.969
Pakistan,PAK,Asia,South Asia,69.3451,30.3753,2016,5.549,,0.627,,0.634,0.080,0.793
Kazakhstan,KAZ,Asia,Europe & Central Asia,66.9237,48.0196,2016,5.534,,0.928,,0.783,-0.047,0.702
Hong Kong S.A.R. of China,HKG,Asia,East Asia & Pacific,114.1095,22.3964,2016,5.498,,0.832,,0.800,0.089,0.403
Hungary,HUN,Europe,Europe & Central Asia,19.5033,47.1625,2016,5.449,,0.900,,0.554,-0.193,0.924
Portugal,PRT,Europe,Europe & Central Asia,-8.2245,39.3999,2016,5.447,,0.905,,0.838,-0.227,0.922
Libya,LBY,Africa,Middle East & North Africa,17.0000,25.0000,2016,5.434,,0.876,,0.822,-0.122,0.000
Philippines,PHL,Asia,East Asia & Pacific,121.7740,12.8797,2016,5.431,,0.821,,0.908,-0.076,0.792
Croatia,HRV,Europe,Europe & Central Asia,15.2000,45.1000,2016,5.417,,0.798,,0.672,-0.066,0.884
Morocco,MAR,Africa,Middle East & North Africa,-7.0926,31.7917,2016,5.386,,0.655,,0.817,-0.249,0.717
Macedonia,MKD,Europe,Europe & Central Asia,21.7453,41.6086,2016,5.346,,0.871,,0.706,0.080,0.870
Algeria,DZA,Africa,Middle East & North Africa,1.6596,28.0339,2016,5.341,,0.749,,0.000,0.000,0.000
Turkey,TUR,Asia,Europe & Central Asia,35.2433,38.9637,2016,5.326,,0.880,,0.644,-0.071,0.764
China,CHN,Asia,East Asia & Pacific,104.1954,35.8617,2016,5.325,,0.742,,0.000,-0.244,0.000
Montenegro,MNE,Europe,Europe & Central Asia,19.3744,42.7087,2016,5.304,,0.866,,0.569,-0.087,0.849
Azerbaijan,AZE,Asia,Europe & Central Asia,47.5769,40.1431,2016,5.304,,0.777,,0.713,-0.224,0.607
Greece,GRC,Europe,Europe & Central Asia,21.8243,39.0742,2016,5.303,,0.803,,0.482,-0.261,0.898
Jordan,JOR,Asia,Middle East & North Africa,36.2384,30.5852,2016,5.271,,0.820,,0.771,-0.036,0.000
Lebanon,LBN,Asia,Middle East & North Africa,35.8623,33.8547,2016,5.271,,0.828,,0.657,0.034,0.853
Dominican Republic,DOM,North America,America,-70.1627,18.7357,2016,5.239,,0.895,,0.873,-0.082,0.737
Nigeria,NGA,Africa,Sub-Saharan Africa,8.6753,9.0820,2016,5.220,,0.805,,0.798,0.033,0.905
Bosnia and Herzegovina,BIH,Europe,Europe & Central Asia,17.6791,43.9159,2016,5.181,,0.808,,0.633,0.135,0.957
Belarus,BLR,Europe,Europe & Central Asia,27.9534,53.7098,2016,5.178,,0.927,,0.658,-0.133,0.664
Indonesia,IDN,Asia,East Asia & Pacific,113.9213,-0.7893,2016,5.136,,0.792,,0.830,0.488,0.890
Tajikistan,TJK,Asia,Europe & Central Asia,71.2761,38.8610,2016,5.104,,0.857,,0.703,0.008,0.632
Nepal,NPL,Asia,South Asia,84.1240,28.3949,2016,5.100,,0.837,,0.839,0.179,0.817
Vietnam,VNM,Asia,East Asia & Pacific,108.2772,14.0583,2016,5.062,,0.876,,0.894,-0.088,0.799
Mongolia,MNG,Asia,East Asia & Pacific,103.8467,46.8625,2016,5.057,,0.947,,0.760,0.076,0.900
Palestinian Territories,PSE,Asia,Middle East & North Africa,17.2666,42.0944,2016,4.907,,0.818,,0.608,-0.134,0.812
Kyrgyzstan,KGZ,Asia,Europe & Central Asia,74.7661,41.2044,2016,4.857,,0.914,,0.814,0.077,0.917
Bulgaria,BGR,Europe,Europe & Central Asia,25.4858,42.7339,2016,4.838,,0.926,,0.700,-0.172,0.936
Gabon,GAB,Africa,Sub-Saharan Africa,11.6094,-0.8037,2016,4.832,,0.780,,0.699,-0.222,0.817
Cameroon,CMR,Africa,Sub-Saharan Africa,12.3547,7.3697,2016,4.816,,0.659,,0.713,-0.007,0.879
South Africa,ZAF,Africa,Sub-Saharan Africa,22.9375,-30.5595,2016,4.770,,0.875,,0.774,-0.079,0.813
Sierra Leone,SLE,Africa,Sub-Saharan Africa,-11.7799,8.4606,2016,4.733,,0.657,,0.681,0.114,0.863
Somalia,SOM,Africa,Sub-Saharan Africa,46.1996,5.1521,2016,4.668,,0.594,,0.917,0.000,0.441
Iran,IRN,Asia,Middle East & North Africa,53.6880,32.4279,2016,4.653,,0.566,,0.773,0.154,0.713
Myanmar,MMR,Asia,East Asia & Pacific,95.9562,21.9140,2016,4.623,,0.793,,0.877,0.659,0.607
Senegal,SEN,Africa,Sub-Saharan Africa,-14.4524,14.4974,2016,4.595,,0.839,,0.744,-0.073,0.794
Egypt,EGY,Africa,Middle East & North Africa,30.8025,26.8206,2016,4.557,,0.809,,0.656,-0.149,0.818
Bangladesh,BGD,Asia,South Asia,90.3563,23.6850,2016,4.556,,0.649,,0.875,-0.084,0.688
Ivory Coast,CIV,Africa,Sub-Saharan Africa,-5.5471,7.5400,2016,4.543,,0.617,,0.769,-0.029,0.757
Congo (Kinshasa),COD,Africa,Sub-Saharan Africa,15.8277,-0.2280,2016,4.522,,0.864,,0.637,-0.008,0.875
Tunisia,TUN,Africa,Middle East & North Africa,9.5375,33.8869,2016,4.521,,0.702,,0.614,-0.177,0.811
Ghana,GHA,Africa,Sub-Saharan Africa,-1.0232,7.9465,2016,4.514,,0.647,,0.751,0.094,0.894
Albania,ALB,Europe,Europe & Central Asia,20.1683,41.1533,2016,4.511,,0.638,,0.730,-0.021,0.901
Mauritania,MRT,Africa,Sub-Saharan Africa,-10.9408,21.0079,2016,4.472,,0.785,,0.467,-0.157,0.842
Cambodia,KHM,Asia,East Asia & Pacific,104.9910,12.5657,2016,4.461,,0.746,,0.958,0.074,0.840
Georgia,GEO,Asia,Europe & Central Asia,83.1132,32.9605,2016,4.448,,0.533,,0.606,-0.235,0.561
Iraq,IRQ,Asia,Middle East & North Africa,43.6793,33.2232,2016,4.413,,0.719,,0.666,-0.088,0.799
Kenya,KEN,Africa,Sub-Saharan Africa,37.9062,-0.0236,2016,4.396,,0.706,,0.749,0.313,0.828
Zambia,ZMB,Africa,Sub-Saharan Africa,27.8493,-13.1339,2016,4.348,,0.767,,0.812,0.111,0.771
Armenia,ARM,Asia,Europe & Central Asia,45.0382,40.0691,2016,4.325,,0.709,,0.611,-0.157,0.921
Ethiopia,ETH,Africa,Sub-Saharan Africa,40.4897,9.1450,2016,4.298,,0.719,,0.744,0.045,0.703
Niger,NER,Africa,Sub-Saharan Africa,8.0817,17.6078,2016,4.235,,0.683,,0.702,-0.003,0.814
Uganda,UGA,Africa,Sub-Saharan Africa,32.2903,1.3733,2016,4.233,,0.754,,0.739,0.142,0.811
Afghanistan,AFG,Asia,South Asia,67.7100,33.9391,2016,4.220,,0.559,,0.523,0.051,0.793
Burkina Faso,BFA,Africa,Sub-Saharan Africa,-1.5616,12.2383,2016,4.206,,0.764,,0.645,0.008,0.721
India,IND,Asia,South Asia,78.9629,20.5937,2016,4.179,,0.614,,0.820,0.034,0.765
Congo (Brazzaville),COG,Africa,Sub-Saharan Africa,15.8277,-0.2280,2016,4.119,,0.615,,0.786,-0.107,0.790
Venezuela,VEN,South America,America,-66.5897,6.4238,2016,4.041,,0.902,,0.458,-0.204,0.890
Chad,TCD,Africa,Sub-Saharan Africa,18.7322,15.4542,2016,4.029,,0.616,,0.525,0.039,0.820
Ukraine,UKR,Europe,Europe & Central Asia,31.1656,48.3794,2016,4.029,,0.885,,0.503,0.030,0.891
Mali,MLI,Africa,Sub-Saharan Africa,-3.9962,17.5707,2016,4.016,,0.836,,0.696,-0.068,0.862
Benin,BEN,Africa,Sub-Saharan Africa,2.3158,9.3077,2016,4.007,,0.493,,0.780,-0.043,0.838
