code,label,lng,lat,easting,northing,population,households,populationDensity
E06000001,Hartlepool,-1.2555,54.6688,448118,530661,92334,40930,985.5
E06000002,Middlesbrough,-1.2228,54.5426,450380,516653,143922,60262,2671.2
E06000003,Redcar and Cleveland,-1.0215,54.5535,463383,518023,136536,61636,557.1
E06000004,Stockton-on-Tees,-1.3290,54.5625,443484,518785,196594,83757,959.3
E06000005,Darlington,-1.5527,54.5488,429038,517147,107807,48918,545.9
E06000006,Halton,-2.7200,53.3438,352162,383230,128475,55951,1624.3
E06000007,Warrington,-2.5628,53.3985,362665,389223,210969,90538,1168
E06000008,Blackburn with Darwen,-2.4671,53.6922,369254,421850,154735,58767,1129.4
E06000009,Blackpool,-3.0355,53.8175,331921,436188,141033,64789,4041.1
E06000010,Kingston upon Hull,-0.3364,53.7601,509765,430588,267010,115472,3730.1
E06000011,East Riding of Yorkshire,-0.4822,53.8680,499908,442365,342217,152066,142.4
E06000012,North East Lincolnshire,-0.1339,53.5440,523749,406881,156966,69826,815
E06000013,North Lincolnshire,-0.5921,53.5943,493268,411782,169674,73173,200.4
E06000014,York,-1.0606,53.9586,461737,451799,202821,85459,745.8
E06000015,Derby,-1.4683,52.9128,435851,335169,261354,105652,3349.5
E06000016,Leicester,-1.1276,52.6383,459135,304861,368569,127387,5027.2
E06000017,Rutland,-0.6541,52.6607,491121,307844,41050,16694,107.5
E06000018,Nottingham,-1.1759,52.9612,455451,340739,323627,124745,4337.6
E06000019,Herefordshire,-2.7457,52.1038,349035,245285,187039,82827,85.8
E06000020,Telford and Wrekin,-2.4885,52.7302,367109,314837,185523,76510,639.1
E06000021,Stoke-on-Trent,-2.1652,53.0176,389018,346716,258375,110399,2764.8
E06000022,Bath and North East Somerset,-2.4744,51.3561,367057,162001,193406,79250,559.2
E06000023,Bristol,-2.7702,51.4526,346546,172919,472462,191638,4308.1
E06000024,North Somerset,-2.8000,51.3892,344429,165882,216727,94648,579.9
E06000025,South Gloucestershire,-2.4712,51.5474,367431,183263,290423,118101,584.3
E06000026,Plymouth,-4.1202,50.3912,249389,56735,264693,114558,3314.8
E06000027,Torbay,-3.5305,50.4408,291417,61223,139324,62992,2215.6
E06000030,Swindon,-1.7443,51.5713,417817,185857,233414,95862,1014.4
E06000031,Peterborough,-0.2538,52.6085,518343,302621,215676,84533,628.1
E06000032,Luton,-0.4245,51.8943,508515,222915,225259,78940,5196
E06000033,Southend-on-Sea,0.7290,51.5376,589363,185610,180685,78344,4335.6
E06000034,Thurrock,0.3741,51.5060,564863,181237,175997,66377,1074.2
E06000035,Medway,0.5700,51.4257,578769,172759,279771,111458,1444.2
E06000036,Bracknell Forest,-0.7399,51.4078,487739,168395,124600,50248,1139.2
E06000037,West Berkshire,-1.3049,51.4497,448409,172535,161447,66658,229.3
E06000038,Reading,-0.9848,51.4532,470639,173186,174235,67683,4312.6
E06000039,Slough,-0.5868,51.5082,498180,179746,158498,52423,4871.5
E06000040,Windsor and Maidenhead,-0.6990,51.4851,490435,177040,153495,60932,781.1
E06000041,Wokingham,-0.8841,51.4293,477672,170613,177499,69164,991.7
E06000042,Milton Keynes,-0.7335,52.0843,486881,243629,287057,113102,930.1
E06000043,Brighton and Hove,-0.1321,50.8433,531606,106526,277107,121402,3345.3
E06000044,Portsmouth,-1.0785,50.8207,465010,102752,208002,86155,5149.8
E06000045,Southampton,-1.3986,50.9170,442376,113232,248912,102291,4990.5
E06000046,Isle of Wight,-1.2969,50.6757,449779,86461,140460,64775,370
E06000047,County Durham,-1.8391,54.6954,410446,533389,522062,234761,234.5
E06000049,Cheshire East,-2.3490,53.1806,376729,364874,398771,174856,341.9
E06000050,Cheshire West and Chester,-2.7362,53.2001,350919,367257,357150,155156,388.2
E06000051,Shropshire,-2.7341,52.6358,350424,304422,323608,139579,101.2
E06000052,Cornwall,-4.8252,50.4056,199168,59975,570304,250535,160.9
E06000053,Isles of Scilly,-6.2988,49.9207,91546,11139,2058,942,125.9
E06000054,Wiltshire,-1.9451,51.2973,403934,155301,510336,215081,156.8
E06000055,Bedford,-0.4766,52.1893,504237,255656,185228,74950,388.8
E06000056,Central Bedfordshire,-0.4363,52.0067,507413,235392,294251,120755,411.2
E06000057,Northumberland,-2.0653,55.2427,395886,594161,320565,146922,63.9
E06000058,Bournemouth Christchurch and Poole,-1.8829,50.7467,408362,94131,400192,173842,2469.2
E06000059,Dorset,-2.3336,50.8060,376581,100771,379578,169261,152.4
E06000060,Buckinghamshire,-0.8121,51.7852,482081,210241,553081,220328,353.4
E06000061,North Northamptonshire,-0.6263,52.4251,493494,281667,359525,148918,364.4
E06000062,West Northamptonshire,-1.0364,52.2230,465908,258722,425726,172641,309.1
E07000008,Cambridge,0.1315,52.1988,545770,257755,145676,52472,3579.2
E07000009,East Cambridgeshire,0.2952,52.3429,556466,274112,87762,37203,134.8
E07000010,Fenland,0.0611,52.5627,539807,298084,102457,44083,187.5
E07000011,Huntingdonshire,-0.2206,52.3739,521228,276573,180832,76880,199.6
E07000012,South Cambridgeshire,0.0815,52.1731,542444,254795,162116,66996,179.8
E07000026,Allerdale,-3.2469,54.7114,319765,535836,96156,43973,77.4
E07000027,Barrow-in-Furness,-3.2130,54.1257,320831,470657,67404,31259,865.3
E07000028,Carlisle,-2.8083,54.9710,348339,564335,110025,50663,106
E07000029,Copeland,-3.3740,54.4142,310947,502927,67063,30789,91.7
E07000030,Eden,-2.6219,54.6129,359952,524354,54734,24613,25.5
E07000031,South Lakeland,-2.8508,54.2925,344716,488871,104449,47657,68
E07000032,Amber Valley,-1.4670,53.0295,435845,348157,126205,56277,475.6
E07000033,Bolsover,-1.2772,53.2152,448358,368917,80277,35262,500.7
E07000034,Chesterfield,-1.4011,53.2554,440052,373318,103569,48058,1568.4
E07000035,Derbyshire Dales,-1.6943,53.1287,420549,359062,71536,32283,90.3
E07000036,Erewash,-1.3472,52.9352,443979,337734,112902,50334,1029.9
E07000037,High Peak,-1.8738,53.3733,408491,386271,90930,40772,168.7
E07000038,North East Derbyshire,-1.4477,53.2261,436969,370027,102000,45987,370.1
E07000039,South Derbyshire,-1.5598,52.8308,429750,326002,107203,45240,317.1
E07000040,East Devon,-3.2236,50.7641,313793,96775,150821,66788,185.2
E07000041,Exeter,-3.5102,50.7218,293498,92447,130712,52554,2780
E07000042,Mid Devon,-3.5562,50.8758,290588,109637,82848,35633,90.8
E07000043,North Devon,-3.9146,51.0697,265967,131782,98608,43197,90.8
E07000044,South Hams,-3.8234,50.3735,270440,54205,88628,39335,100
E07000045,Teignbridge,-3.6569,50.6063,282849,79821,134805,59838,200.1
E07000046,Torridge,-4.2485,50.8859,241935,112003,68122,30457,69.2
E07000047,West Devon,-4.0460,50.6559,255465,86000,57093,24818,49.2
E07000061,Eastbourne,0.2655,50.7753,559822,99749,101685,45610,2302.6
E07000062,Hastings,0.5703,50.8695,580952,110924,91006,40453,3053.9
E07000063,Lewes,0.0053,50.8815,541167,111026,99912,43688,342
E07000064,Rother,0.5386,50.9518,578409,119997,93111,42102,182.8
E07000065,Wealden,0.1979,50.9676,554434,120966,160146,68266,192.2
E07000066,Basildon,0.4657,51.5903,570901,190821,187576,76362,1705.1
E07000067,Braintree,0.5901,51.9420,578133,230213,155267,64986,253.8
E07000068,Brentwood,0.3107,51.6385,559999,195829,77045,32342,503.2
E07000069,Castle Point,0.5937,51.5363,579982,185122,89591,37389,2005.4
E07000070,Chelmsford,0.4810,51.7254,571456,205876,181527,75401,535.9
E07000071,Colchester,0.8614,51.8726,597077,223202,192716,79710,587.2
E07000072,Epping Forest,0.1482,51.7088,548522,203300,134981,54557,398.2
E07000073,Harlow,0.1089,51.7690,545614,209915,93334,37857,3056.1
E07000074,Maldon,0.7838,51.7092,592438,204831,66208,27900,185
E07000075,Rochford,0.8101,51.5912,594750,191782,85667,35557,512.7
E07000076,Tendring,1.1155,51.8713,614571,223776,148287,67451,440.9
E07000077,Uttlesford,0.2795,51.9349,556816,228707,91340,36958,142.5
E07000078,Cheltenham,-2.0729,51.8963,395079,221973,118833,52899,2549.3
E07000079,Cotswold,-1.8925,51.8164,407474,213072,90834,40597,78
E07000080,Forest of Dean,-2.4898,51.8287,366318,214546,87006,37217,165.4
E07000081,Gloucester,-2.2404,51.8499,383531,216834,132409,55407,3266.6
E07000082,Stroud,-2.3001,51.7296,379361,203473,121103,52378,263
E07000083,Tewkesbury,-2.0880,51.9456,394038,227458,94888,40931,229
E07000084,Basingstoke and Deane,-1.2012,51.2735,455819,153006,185148,76645,292.1
E07000085,East Hampshire,-0.9548,51.0744,473316,131076,125741,52718,244.4
E07000086,Eastleigh,-1.3279,50.9331,447331,115065,136446,56924,1712.1
E07000087,Fareham,-1.2262,50.8524,454571,106165,114503,48639,1542.1
E07000088,Gosport,-1.1588,50.8055,459361,100995,81955,35922,3229.8
E07000089,Hart,-0.8979,51.2847,476958,154529,99409,39964,461.8
E07000090,Havant,-0.9898,50.8387,471226,104842,124207,53589,2228.4
E07000091,New Forest,-1.6255,50.8586,426464,106633,175778,77566,233.7
E07000092,Rushmoor,-0.7676,51.2742,486069,153516,99758,39303,2554.9
E07000093,Test Valley,-1.5110,51.1285,434314,136669,130488,54708,207.9
E07000094,Winchester,-1.2214,51.0282,454712,125708,127448,51715,192.8
E07000095,Broxbourne,-0.0483,51.7243,534904,204646,99005,39849,1924.9
E07000096,Dacorum,-0.5410,51.7783,500758,209858,155082,63412,729.8
E07000098,Hertsmere,-0.2807,51.6774,518976,199022,107822,42682,1065.9
E07000099,North Hertfordshire,-0.1924,51.9593,524291,230523,133211,56732,354.9
E07000102,Three Rivers,-0.4608,51.6613,506561,196949,93774,36858,1055.8
E07000103,Watford,-0.4028,51.6681,510556,197803,102244,39628,4772.2
E07000105,Ashford,0.8119,51.1252,596857,139969,132752,53583,228.6
E07000106,Canterbury,1.1014,51.2833,616375,158359,157431,63792,509.9
E07000107,Dartford,0.2541,51.4314,556785,172676,116756,45696,1605.3
E07000108,Dover,1.2892,51.2124,629815,151044,116407,50548,369.2
E07000109,Gravesham,0.3960,51.4056,566746,170115,106899,41724,1079.9
E07000110,Maidstone,0.5806,51.2348,580248,151563,175778,71208,446.9
E07000111,Sevenoaks,0.1717,51.2760,551567,155211,120516,49013,326.4
E07000112,Folkestone and Hythe,0.9957,51.0544,610024,132599,109754,48338,307.5
E07000113,Swale,0.8125,51.3417,595988,164044,151678,60495,406.2
E07000114,Thanet,1.3404,51.3543,632674,166985,140585,62200,1356.9
E07000115,Tonbridge and Malling,0.3571,51.2730,564511,155282,132196,53573,550.6
E07000116,Tunbridge Wells,0.4309,51.1141,570254,137789,115311,48223,348
E07000117,Burnley,-2.2214,53.7789,385506,431414,94649,39872,855
E07000118,Chorley,-2.6482,53.6612,357265,418497,117731,50132,580.6
E07000119,Fylde,-2.9223,53.7842,339324,432384,81380,37606,491.2
E07000120,Hyndburn,-2.3896,53.7589,374414,429238,82236,34790,1126.6
E07000121,Lancaster,-2.7146,54.0691,353328,463919,142932,59978,252.1
E07000122,Pendle,-2.1856,53.8655,387886,441045,95753,38066,565.4
E07000123,Preston,-2.6973,53.8115,354185,435253,147835,59607,1039
E07000124,Ribble Valley,-2.4451,53.9072,370849,445761,61558,26747,105.6
E07000125,Rossendale,-2.2669,53.6940,382473,421988,70876,30561,513.4
E07000126,South Ribble,-2.7107,53.7281,353203,425975,111042,48586,981.4
E07000127,West Lancashire,-2.8825,53.6096,341717,412911,117427,48533,338.8
E07000128,Wyre,-2.8537,53.9029,344008,445536,111949,50767,396.7
E07000129,Blaby,-1.2216,52.5717,452852,297375,102933,42575,788.9
E07000130,Charnwood,-1.1463,52.7370,457739,315833,183978,73785,659.2
E07000131,Harborough,-1.0077,52.5395,467383,293977,97631,40413,165
E07000132,Hinckley and Bosworth,-1.3906,52.6166,441354,302271,113640,49446,382.2
E07000133,Melton,-0.8560,52.7967,477226,322729,51751,22599,107.5
E07000134,North West Leicestershire,-1.4051,52.7532,440239,317453,104706,44973,374.8
E07000135,Oadby and Wigston,-1.0933,52.5870,461524,299185,57753,22617,2454.9
E07000136,Boston,-0.0218,52.9743,532926,343714,70503,29404,193.7
E07000137,East Lindsey,0.0299,53.2500,535540,374440,142292,64754,80.5
E07000138,Lincoln,-0.5549,53.2247,496573,370718,103813,42507,2908.9
E07000139,North Kesteven,-0.4459,53.0812,504210,354897,118075,50989,128
E07000140,South Holland,-0.0320,52.7979,532780,324067,95119,40703,126.8
E07000141,South Kesteven,-0.5184,52.8547,499893,329594,143400,62850,152.1
E07000142,West Lindsey,-0.4774,53.3929,501339,389522,95152,42345,82.3
E07000143,Breckland,0.8369,52.5881,592273,302678,141478,60359,108.4
E07000144,Broadland,1.3096,52.7014,623735,316663,131722,57760,238.6
E07000145,Great Yarmouth,1.6614,52.6408,647815,311075,99743,44544,572.2
E07000146,King's Lynn and West Norfolk,0.4706,52.7272,566910,317216,154318,67464,107.2
E07000147,North Norfolk,1.1695,52.8504,613546,332832,102988,48374,106.6
E07000148,Norwich,1.2794,52.6323,622020,308886,143926,64459,3688.2
E07000149,South Norfolk,1.2759,52.5145,622377,295780,141948,61381,156.4
E07000163,Craven,-2.1743,54.0799,388715,464893,56923,26069,48.4
E07000164,Hambleton,-1.3193,54.2873,444420,488149,90691,40802,69.2
E07000165,Harrogate,-1.5957,54.0671,426573,463534,162666,71169,124.4
E07000166,Richmondshire,-1.9340,54.3615,404370,496225,49764,20944,37.7
E07000167,Ryedale,-0.8517,54.2104,475009,480011,54709,24714,36.3
E07000168,Scarborough,-0.6353,54.3664,488815,497619,108736,51123,133.2
E07000169,Selby,-1.1353,53.7875,457071,432688,91990,39560,153.5
E07000170,Ashfield,-1.2583,53.0918,449768,355201,126305,54508,1152.8
E07000171,Bassetlaw,-0.9588,53.3329,469431,382275,117804,51458,184.7
E07000172,Broxtowe,-1.2620,52.9757,449657,342283,110944,48361,1385
E07000173,Gedling,-1.1193,53.0286,459166,348277,117258,51551,977.4
E07000174,Mansfield,-1.1737,53.1710,455327,364075,110486,48030,1440.2
E07000175,Newark and Sherwood,-0.9199,53.1240,472378,359080,122954,53331,188.8
E07000176,Rushcliffe,-1.0374,52.9007,464834,334124,119078,49883,291
E07000177,Cherwell,-1.2761,51.9586,449860,229130,161013,65894,273.5
E07000178,Oxford,-1.2417,51.7547,452441,206500,162039,55238,3553
E07000179,South Oxfordshire,-1.0710,51.6338,464397,193175,149080,61497,219.7
E07000180,Vale of White Horse,-1.4409,51.6343,438787,192976,138910,57498,240.5
E07000181,West Oxfordshire,-1.5069,51.8377,434067,215553,114233,47981,159.9
E07000187,Mendip,-2.5444,51.2028,362056,144991,116090,50294,157
E07000188,Sedgemoor,-2.9533,51.1849,333465,143276,125354,53904,222.2
E07000189,South Somerset,-2.7099,50.9879,350246,121192,172675,75936,180
E07000192,Cannock Chase,-1.9805,52.7124,401418,312745,100529,43457,1274.3
E07000193,East Staffordshire,-1.8120,52.8631,412763,329519,124019,51293,320.5
E07000194,Lichfield,-1.8048,52.6879,413297,310036,106439,45630,321.3
E07000195,Newcastle-under-Lyme,-2.3179,52.9937,378749,344081,123306,53423,584.5
E07000196,South Staffordshire,-2.1765,52.6250,388140,303026,110474,46121,271.2
E07000197,Stafford,-2.1762,52.8482,388230,327866,136870,60047,228.8
E07000198,Staffordshire Moorlands,-1.9816,53.0792,401331,353540,95851,42355,166.4
E07000199,Tamworth,-1.6767,52.6263,421984,303220,78646,32895,2549.6
E07000200,Babergh,0.9150,52.0507,599986,243163,92332,40200,155.5
E07000202,Ipswich,1.1593,52.0552,616698,244356,139644,59507,3534.3
E07000203,Mid Suffolk,1.0926,52.2468,611211,265459,102702,44343,117.9
E07000207,Elmbridge,-0.3920,51.3572,512060,163238,138757,55590,1459.6
E07000208,Epsom and Ewell,-0.2616,51.3394,521188,161461,80939,31321,2375.4
E07000209,Guildford,-0.5622,51.2480,500446,150851,143646,55760,530.2
E07000210,Mole Valley,-0.3256,51.2122,517049,147214,87386,37139,338.3
E07000211,Reigate and Banstead,-0.1918,51.2533,526286,152009,150852,59849,1168.1
E07000212,Runnymede,-0.5408,51.3933,501617,167042,88085,34838,1128.6
E07000213,Spelthorne,-0.4675,51.4244,506652,170605,102953,41805,2293.9
E07000214,Surrey Heath,-0.6712,51.3433,492648,161313,90460,36008,951.2
E07000215,Tandridge,-0.0435,51.2270,536712,149345,87878,35623,354.1
E07000216,Waverley,-0.6335,51.1501,495682,139877,128231,52448,371.5
E07000217,Woking,-0.5605,51.3145,500423,158249,103940,41437,1634.4
E07000218,North Warwickshire,-1.6276,52.5471,425346,294421,65035,27580,228.8
E07000219,Nuneaton and Bedworth,-1.4755,52.5011,435701,289373,134204,56586,1699.7
E07000220,Rugby,-1.3282,52.3845,445826,276476,114366,47013,325.7
E07000221,Stratford-on-Avon,-1.6226,52.1786,425910,253437,134727,59464,137.8
E07000222,Warwick,-1.5832,52.3102,428512,268090,148452,62619,524.8
E07000223,Adur,-0.2990,50.8438,519857,106296,64547,27678,1534.4
E07000224,Arun,-0.5680,50.8406,500922,105536,164896,72661,746.1
E07000225,Chichester,-0.7425,50.9373,488437,116059,124068,54118,157.8
E07000226,Crawley,-0.1821,51.1256,527313,137822,118495,45502,2634.9
E07000227,Horsham,-0.3670,50.9934,514696,122819,146776,62370,276.8
E07000228,Mid Sussex,-0.1274,51.0205,531427,126224,152570,63349,456.8
E07000229,Worthing,-0.3963,50.8287,513043,104470,111338,49538,3423.7
E07000234,Bromsgrove,-2.0167,52.3622,398961,273791,99186,41266,457.1
E07000235,Malvern Hills,-2.3462,52.1831,376452,253907,79483,34892,137.7
E07000236,Redditch,-1.9512,52.2823,403427,264902,87034,36378,1604.4
E07000237,Worcester,-2.2109,52.1963,385680,255359,103866,44722,3121.4
E07000238,Wychavon,-2.0512,52.1650,396608,251844,132495,57356,199.7
E07000239,Wyre Forest,-2.2756,52.3796,381336,275771,101609,45320,520
E07000240,St Albans,-0.3428,51.7724,514441,209482,148173,58991,919.3
E07000241,Welwyn Hatfield,-0.1944,51.7677,524698,209206,119839,46209,925
E07000242,East Hertfordshire,-0.0087,51.8650,537205,220364,150160,62021,315.7
E07000243,Stevenage,-0.1908,51.9053,524559,224521,89501,36511,3444.8
E07000244,East Suffolk,1.4622,52.2372,636456,265500,246055,110747,195.1
E07000245,West Suffolk,0.6219,52.2778,578957,267629,179951,78746,173.9
E07000246,Somerset West and Taunton,-3.3628,51.0868,304672,132836,157448,69986,132.6
E08000001,Bolton,-2.4669,53.5786,369187,409211,295961,118790,2117
E08000002,Bury,-2.3122,53.5876,379434,410155,193851,80696,1948.6
E08000003,Manchester,-2.2326,53.4509,384645,394923,551943,214732,4772.7
E08000004,Oldham,-2.0517,53.5520,396668,406152,242081,93140,1700.5
E08000005,Rochdale,-2.1580,53.6164,389646,413331,223775,90223,1415.6
E08000006,Salford,-2.3706,53.4896,375503,399266,269927,115116,2777.2
E08000007,Stockport,-2.1281,53.3938,391577,388561,294776,126648,2338.3
E08000008,Tameside,-2.0626,53.4778,395938,397900,231063,99527,2239.7
E08000009,Trafford,-2.3546,53.4194,376532,391465,235063,96269,2216.7
E08000010,Wigan,-2.5893,53.5244,361033,403243,329329,143105,1750
E08000011,Knowsley,-2.8338,53.4258,344694,392430,154523,66073,1787
E08000012,Liverpool,-2.9168,53.3956,339133,389144,486093,207491,4346.1
E08000013,St. Helens,-2.7226,53.4595,352124,396102,183245,81011,1343.6
E08000014,Sefton,-3.0154,53.5660,332846,408176,279231,123073,1783.4
E08000015,Wirral,-3.0925,53.3683,327405,386273,320199,143252,1989.7
E08000016,Barnsley,-1.5324,53.5359,431083,404470,244576,108053,743.3
E08000017,Doncaster,-1.0953,53.5444,460041,405684,308108,133482,542.4
E08000018,Rotherham,-1.2862,53.4090,447556,390471,265806,113925,927.7
E08000019,Sheffield,-1.5502,53.4042,430011,389797,556519,231950,1512.5
E08000021,Newcastle upon Tyne,-1.6578,55.0078,421988,568195,300131,122797,2646.1
E08000022,North Tyneside,-1.5176,55.0281,430940,570503,208952,96232,2538.6
E08000023,South Tyneside,-1.4437,54.9635,435717,563346,147777,68287,2294.2
E08000024,Sunderland,-1.4522,54.8805,435242,554109,274166,122177,1994.6
E08000025,Birmingham,-1.8744,52.4885,408620,287849,1144916,423456,4275.4
E08000026,Coventry,-1.5202,52.4174,432736,280037,345328,134139,3500.7
E08000027,Dudley,-2.1081,52.4831,392753,287253,323495,137069,3302.4
E08000028,Sandwell,-2.0085,52.5158,399516,290879,341835,130246,3994.9
E08000029,Solihull,-1.7278,52.4128,418611,279457,216236,89483,1212.9
E08000030,Walsall,-1.9665,52.5992,402370,300150,284130,112226,2733.1
E08000031,Wolverhampton,-2.1206,52.5890,391927,299026,263730,105141,3797.9
E08000032,Bradford,-1.8548,53.8448,409656,438737,546409,209867,1491.2
E08000033,Calderdale,-1.9738,53.7212,401827,424977,206627,90476,567.8
E08000034,Kirklees,-1.7633,53.6274,415745,414567,433222,177989,1060.3
E08000035,Leeds,-1.5059,53.8256,432624,436701,811950,341466,1471.7
E08000036,Wakefield,-1.4115,53.6607,438985,418409,353375,153075,1043.6
E08000037,Gateshead,-1.6837,54.9354,420364,560133,196144,88999,1378
E09000001,City of London,-0.0914,51.5139,532539,181164,8579,4914,2975
E09000002,Barking and Dagenham,0.1337,51.5438,548056,184924,218863,73902,6065.8
E09000003,Barnet,-0.2091,51.6160,524095,192314,389340,148917,4488.7
E09000004,Bexley,0.1428,51.4609,548955,175730,246473,95300,4070.7
E09000005,Brent,-0.2676,51.5594,520189,185924,339818,118612,7859.6
E09000006,Bromley,0.0511,51.3721,542864,165667,329989,135827,2197.7
E09000007,Camden,-0.1565,51.5456,527931,184580,210134,92759,9640.9
E09000008,Croydon,-0.0870,51.3554,533300,163557,390718,152946,4516
E09000009,Ealing,-0.3303,51.5223,515931,181701,367122,133659,6611.6
E09000010,Enfield,-0.0874,51.6511,532411,196432,329986,120923,4082.5
E09000011,Greenwich,0.0555,51.4743,542847,177046,289067,114052,6108.6
E09000012,Hackney,-0.0637,51.5522,534348,185478,259148,106081,13593.3
E09000013,Hammersmith and Fulham,-0.2220,51.4956,523529,178905,183161,81244,11161.1
E09000014,Haringey,-0.1071,51.5901,531225,189614,264234,105092,8930.2
E09000015,Harrow,-0.3424,51.5982,514912,190121,261203,89642,5175.4
E09000016,Havering,0.2208,51.5631,554032,187245,262057,101277,2332.3
E09000017,Hillingdon,-0.4455,51.5409,507905,183585,305916,109228,2644
E09000018,Hounslow,-0.3660,51.4686,513589,175668,288181,102961,5148
E09000019,Islington,-0.1100,51.5487,531145,185005,216587,96496,14574.9
E09000020,Kensington and Chelsea,-0.1919,51.5006,525606,179504,143376,66884,11816.5
E09000021,Kingston upon Thames,-0.2865,51.3869,519327,166705,168064,65626,4512.1
E09000022,Lambeth,-0.1188,51.4543,530807,174499,317662,134688,11839.1
E09000023,Lewisham,-0.0201,51.4487,537676,174051,300554,122392,8551.5
E09000024,Merton,-0.1957,51.4103,525579,169458,215188,81729,5721.6
E09000025,Newham,0.0379,51.5269,541466,182855,351039,115507,9690.1
E09000026,Redbridge,0.0759,51.5851,543919,189405,310260,103713,5501.9
E09000027,Richmond upon Thames,-0.3126,51.4426,517367,172867,195278,80705,3401.9
E09000028,Southwark,-0.0745,51.4738,533829,176738,307641,130818,10659
E09000029,Sutton,-0.1777,51.3620,526964,164120,209640,82348,4781
E09000030,Tower Hamlets,-0.0342,51.5160,536495,181509,310303,120539,15702.9
E09000031,Waltham Forest,-0.0131,51.5938,537726,190195,278429,102901,7173.3
E09000032,Wandsworth,-0.1872,51.4523,526055,174145,327506,137393,9560
E09000033,Westminster,-0.1605,51.5135,527739,181005,204240,94815,9514.2
W06000001,Isle of Anglesey,-4.3747,53.2862,241795,379205,68875,30822,96.7
W06000002,Gwynedd,-4.0249,52.8950,263903,334963,117397,51105,46.3
W06000003,Conwy,-3.7358,53.1408,283987,361802,114741,52235,101.9
W06000004,Denbighshire,-3.3544,53.0917,309404,355776,95816,42387,114.5
W06000005,Flintshire,-3.1636,53.2183,322419,369649,154965,66911,352.3
W06000006,Wrexham,-3.0174,52.9903,331795,344142,135115,57914,268.2
W06000008,Ceredigion,-4.0725,52.2560,258574,263991,71468,30893,40
W06000009,Pembrokeshire,-4.8862,51.8537,201312,221152,123366,55488,76.2
W06000010,Carmarthenshire,-4.1632,51.8992,251227,224511,187895,81759,79.3
W06000011,Swansea,-4.0614,51.6414,257445,195641,238500,104962,631.5
W06000012,Neath Port Talbot,-3.7434,51.6800,279564,199348,142290,62375,322.5
W06000013,Bridgend,-3.6003,51.5560,289150,185340,145486,62360,580.1
W06000014,Vale of Glamorgan,-3.3999,51.4449,302809,172697,131935,57450,398.4
W06000015,Cardiff,-3.2006,51.5087,316778,179542,362301,147333,2571.3
W06000016,Rhondda Cynon Taf,-3.4362,51.6511,300745,195665,237651,103339,560.3
W06000018,Caerphilly,-3.2048,51.6531,316753,195610,175956,76257,634.2
W06000019,Blaenau Gwent,-3.1940,51.7664,317699,208201,66900,30340,615.1
W06000020,Torfaen,-3.0534,51.6991,327301,200555,92274,40241,734.4
W06000021,Monmouthshire,-2.8675,51.7579,340238,206911,92961,40923,109.5
W06000022,Newport,-2.9617,51.5738,333448,186541,159594,66054,838.1
W06000023,Powys,-3.4099,52.3256,303993,270454,133174,60182,25.7
W06000024,Merthyr Tydfil,-3.3607,51.7401,306153,205467,58847,25783,528.2